$GNGGA,100013.000,1003.350022,N,07621.272772,E,1,20,1.34,53.479,M,-93.488,M,,*69
$GNGGA,100014.000,1003.350022,N,07621.272772,E,1,20,1.34,53.479,M,-93.488,M,,*6E
$GNGGA,100015.000,1003.350022,N,07621.272772,E,1,20,1.34,53.479,M,-93.488,M,,*6F
$GNGGA,100016.000,1003.350022,N,07621.272772,E,1,20,1.34,53.479,M,-93.488,M,,*6C
$GNGGA,100017.000,1003.350022,N,07621.272772,E,1,20,1.34,53.479,M,-93.488,M,,*6D
$GNGGA,100018.000,1003.350022,N,07621.272772,E,1,19,1.36,53.479,M,-93.488,M,,*6A
$GNGGA,100019.000,1003.350022,N,07621.272772,E,1,19,1.36,53.479,M,-93.488,M,,*6B
$GNGGA,100020.000,1003.350022,N,07621.272772,E,1,19,1.36,53.479,M,-93.488,M,,*61
$GNGGA,100021.000,1003.350022,N,07621.272772,E,1,20,1.34,53.479,M,-93.488,M,,*68
$GNGGA,100022.000,1003.350022,N,07621.272772,E,1,20,1.34,53.479,M,-93.488,M,,*6B
$GNGGA,100023.000,1003.350022,N,07621.272772,E,1,20,1.34,53.479,M,-93.488,M,,*6A
$GNGGA,100024.000,1003.350022,N,07621.272772,E,1,20,1.34,53.479,M,-93.488,M,,*6D
$GNGGA,100025.000,1003.350022,N,07621.272772,E,1,20,1.34,53.479,M,-93.488,M,,*6C
$GNGGA,100026.000,1003.350022,N,07621.272772,E,1,20,1.34,53.479,M,-93.488,M,,*6F
$GNGGA,100027.000,1003.350022,N,07621.272772,E,1,20,1.34,53.479,M,-93.488,M,,*6E
$GNGGA,100028.000,1003.350022,N,07621.272772,E,1,20,1.34,53.479,M,-93.488,M,,*61
$GNGGA,100029.000,1003.350022,N,07621.272772,E,1,21,1.33,53.479,M,-93.488,M,,*66
$GNGGA,100030.000,1003.350022,N,07621.272772,E,1,21,1.33,53.479,M,-93.488,M,,*6E
$GNGGA,100031.000,1003.350022,N,07621.272772,E,1,21,1.33,53.479,M,-93.488,M,,*6F
$GNGGA,100032.000,1003.350022,N,07621.272772,E,1,21,1.33,53.479,M,-93.488,M,,*6C
$GNGGA,100033.000,1003.350022,N,07621.272772,E,1,21,1.33,53.479,M,-93.488,M,,*6D
$GNGGA,100034.000,1003.350022,N,07621.272772,E,1,21,1.33,53.479,M,-93.488,M,,*6A
$GNGGA,100035.000,1003.350022,N,07621.272772,E,1,21,1.33,53.479,M,-93.488,M,,*6B
$GNGGA,100036.000,1003.350022,N,07621.272772,E,1,21,1.34,53.479,M,-93.488,M,,*6F
$GNGGA,100037.000,1003.350022,N,07621.272772,E,1,21,1.34,53.479,M,-93.488,M,,*6E
$GNGGA,100038.000,1003.350022,N,07621.272772,E,1,21,1.34,53.479,M,-93.488,M,,*61
$GNGGA,100039.000,1003.350022,N,07621.272772,E,1,21,1.34,53.479,M,-93.488,M,,*60
$GNGGA,100040.000,1003.350022,N,07621.272772,E,1,21,1.34,53.479,M,-93.488,M,,*6E
$GNGGA,100041.000,1003.350022,N,07621.272772,E,1,21,1.34,53.479,M,-93.488,M,,*6F
$GNGGA,100042.000,1003.350022,N,07621.272772,E,1,21,1.34,53.479,M,-93.488,M,,*6C
$GNGGA,100043.000,1003.350022,N,07621.272772,E,1,21,1.34,53.479,M,-93.488,M,,*6D
$GNGGA,100044.000,1003.350022,N,07621.272772,E,1,21,1.34,53.479,M,-93.488,M,,*6A
$GNGGA,100045.000,1003.350022,N,07621.272772,E,1,22,1.33,53.479,M,-93.488,M,,*6F
$GNGGA,100046.000,1003.350022,N,07621.272772,E,1,22,1.33,53.479,M,-93.488,M,,*6C
$GNGGA,100047.000,1003.350022,N,07621.272772,E,1,22,1.33,53.479,M,-93.488,M,,*6D
$GNGGA,100048.000,1003.350022,N,07621.272772,E,1,22,1.33,53.479,M,-93.488,M,,*62
$GNGGA,100049.000,1003.350022,N,07621.272772,E,1,22,1.33,53.479,M,-93.488,M,,*63
$GNGGA,100050.000,1003.350022,N,07621.272772,E,1,22,1.33,53.479,M,-93.488,M,,*6B
$GNGGA,100051.000,1003.350022,N,07621.272772,E,1,22,1.33,53.479,M,-93.488,M,,*6A
$GNGGA,100052.000,1003.350022,N,07621.272772,E,1,22,1.33,53.479,M,-93.488,M,,*69
$GNGGA,100053.000,1003.350022,N,07621.272772,E,1,22,1.33,53.479,M,-93.488,M,,*68
$GNGGA,100054.000,1003.350022,N,07621.272772,E,1,22,1.33,53.479,M,-93.488,M,,*6F
$GNGGA,100055.000,1003.350022,N,07621.272772,E,1,22,1.33,53.479,M,-93.488,M,,*6E
$GNGGA,100056.000,1003.350022,N,07621.272772,E,1,22,1.33,53.479,M,-93.488,M,,*6D
$GNGGA,100057.000,1003.350022,N,07621.272772,E,1,22,1.33,53.479,M,-93.488,M,,*6C
$GNGGA,100058.000,1003.350022,N,07621.272772,E,1,22,1.33,53.479,M,-93.488,M,,*63
$GNGGA,100059.000,1003.350022,N,07621.272772,E,1,22,1.33,53.479,M,-93.488,M,,*62
$GNGGA,100100.000,1003.350022,N,07621.272772,E,1,22,1.33,53.479,M,-93.488,M,,*6F
$GNGGA,100101.000,1003.350022,N,07621.272772,E,1,22,1.33,53.479,M,-93.488,M,,*6E
$GNGGA,100102.000,1003.350022,N,07621.272772,E,1,22,1.33,53.479,M,-93.488,M,,*6D
$GNGGA,100103.000,1003.350022,N,07621.272772,E,1,22,1.33,53.479,M,-93.488,M,,*6C
$GNGGA,100104.000,1003.350022,N,07621.272772,E,1,22,1.33,53.479,M,-93.488,M,,*6B
$GNGGA,100105.000,1003.350022,N,07621.272772,E,1,22,1.33,53.479,M,-93.488,M,,*6A
$GNGGA,100106.000,1003.350022,N,07621.272772,E,1,22,1.33,53.479,M,-93.488,M,,*69
$GNGGA,100107.000,1003.350022,N,07621.272772,E,1,22,1.33,53.479,M,-93.488,M,,*68
$GNGGA,100108.000,1003.350022,N,07621.272772,E,1,22,1.33,53.479,M,-93.488,M,,*67
$GNGGA,100109.000,1003.350022,N,07621.272772,E,1,22,1.33,53.479,M,-93.488,M,,*66
$GNGGA,100110.000,1003.350022,N,07621.272772,E,1,22,1.33,53.479,M,-93.488,M,,*6E
$GNGGA,100111.000,1003.350022,N,07621.272772,E,1,22,1.33,53.479,M,-93.488,M,,*6F
$GNGGA,100112.000,1003.350022,N,07621.272772,E,1,22,1.33,53.479,M,-93.488,M,,*6C
$GNGGA,100113.000,1003.350022,N,07621.272772,E,1,22,1.33,53.479,M,-93.488,M,,*6D
$GNGGA,100114.000,1003.350022,N,07621.272772,E,1,22,1.33,53.479,M,-93.488,M,,*6A
$GNGGA,100115.000,1003.350022,N,07621.272772,E,1,22,1.33,53.479,M,-93.488,M,,*6B
$GNGGA,100116.000,1003.350022,N,07621.272772,E,1,22,1.33,53.479,M,-93.488,M,,*68
$GNGGA,100117.000,1003.350022,N,07621.272772,E,1,22,1.33,53.479,M,-93.488,M,,*69
$GNGGA,100118.000,1003.350022,N,07621.272772,E,1,22,1.33,53.479,M,-93.488,M,,*66
$GNGGA,100119.000,1003.350022,N,07621.272772,E,1,22,1.33,53.479,M,-93.488,M,,*67
$GNGGA,100120.000,1003.350022,N,07621.272772,E,1,22,1.33,53.479,M,-93.488,M,,*6D
$GNGGA,100121.000,1003.350022,N,07621.272772,E,1,22,1.33,53.479,M,-93.488,M,,*6C
$GNGGA,100122.000,1003.350022,N,07621.272772,E,1,22,1.33,53.479,M,-93.488,M,,*6F
$GNGGA,100123.000,1003.350022,N,07621.272772,E,1,22,1.33,53.479,M,-93.488,M,,*6E
$GNGGA,100124.000,1003.350022,N,07621.272772,E,1,22,1.33,53.479,M,-93.488,M,,*69
$GNGGA,100125.000,1003.350022,N,07621.272772,E,1,22,1.33,53.479,M,-93.488,M,,*68
$GNGGA,100126.000,1003.350022,N,07621.272772,E,1,22,1.33,53.479,M,-93.488,M,,*6B
$GNGGA,100127.000,1003.350022,N,07621.272772,E,1,22,1.33,53.479,M,-93.488,M,,*6A
$GNGGA,100128.000,1003.350022,N,07621.272772,E,1,22,1.33,53.479,M,-93.488,M,,*65
$GNGGA,100129.000,1003.350022,N,07621.272772,E,1,22,1.33,53.479,M,-93.488,M,,*64
$GNGGA,100130.000,1003.350022,N,07621.272772,E,1,22,1.33,53.479,M,-93.488,M,,*6C
$GNGGA,100131.000,1003.350022,N,07621.272772,E,1,21,1.34,53.479,M,-93.488,M,,*69
$GNGGA,100132.000,1003.350022,N,07621.272772,E,1,21,1.34,53.479,M,-93.488,M,,*6A
$GNGGA,100133.000,1003.350022,N,07621.272772,E,1,22,1.33,53.479,M,-93.488,M,,*6F
$GNGGA,100134.000,1003.350022,N,07621.272772,E,1,22,1.33,53.479,M,-93.488,M,,*68
$GNGGA,100135.000,1003.350022,N,07621.272772,E,1,22,1.33,53.479,M,-93.488,M,,*69
$GNGGA,100136.000,1003.350022,N,07621.272772,E,1,22,1.33,53.479,M,-93.488,M,,*6A
$GNGGA,100137.000,1003.350022,N,07621.272772,E,1,22,1.33,53.479,M,-93.488,M,,*6B
$GNGGA,100138.000,1003.350022,N,07621.272772,E,1,22,1.33,53.479,M,-93.488,M,,*64
$GNGGA,100139.000,1003.350022,N,07621.272772,E,1,22,1.33,53.479,M,-93.488,M,,*65
$GNGGA,100140.000,1003.350022,N,07621.272772,E,1,22,1.33,53.479,M,-93.488,M,,*6B
$GNGGA,100141.000,1003.350022,N,07621.272772,E,1,22,1.33,53.479,M,-93.488,M,,*6A
$GNGGA,100142.000,1003.350022,N,07621.272772,E,1,21,1.33,53.479,M,-93.488,M,,*6A
$GNGGA,100143.000,1003.350022,N,07621.272772,E,1,21,1.33,53.479,M,-93.488,M,,*6B
$GNGGA,100144.000,1003.350022,N,07621.272772,E,1,20,1.34,53.479,M,-93.488,M,,*6A
$GNGGA,100145.000,1003.350022,N,07621.272772,E,1,22,1.33,53.479,M,-93.488,M,,*6E
$GNGGA,100146.000,1003.350022,N,07621.272772,E,1,22,1.33,53.479,M,-93.488,M,,*6D
$GNGGA,100147.000,1003.350022,N,07621.272772,E,1,21,1.34,53.479,M,-93.488,M,,*68
$GNGGA,100148.000,1003.350022,N,07621.272772,E,1,20,1.34,53.479,M,-93.488,M,,*66
$GNGGA,100149.000,1003.350022,N,07621.272772,E,1,21,1.33,53.479,M,-93.488,M,,*61
$GNGGA,100150.000,1003.350022,N,07621.272772,E,1,20,1.34,53.479,M,-93.488,M,,*6F
$GNGGA,100151.000,1003.350022,N,07621.272772,E,1,20,1.34,53.479,M,-93.488,M,,*6E
$GNGGA,100152.000,1003.350022,N,07621.272772,E,1,20,1.34,53.479,M,-93.488,M,,*6D
$GNGGA,100153.000,1003.350022,N,07621.272772,E,1,20,1.34,53.479,M,-93.488,M,,*6C
$GNGGA,100154.000,1003.350022,N,07621.272772,E,1,19,1.35,53.479,M,-93.488,M,,*60
$GNGGA,100155.000,1003.350022,N,07621.272772,E,1,19,1.35,53.479,M,-93.488,M,,*61
$GNGGA,100156.000,1003.350022,N,07621.272772,E,1,19,1.35,53.479,M,-93.488,M,,*62
$GNGGA,100157.000,1003.350022,N,07621.272772,E,1,19,1.35,53.479,M,-93.488,M,,*63
$GNGGA,100158.000,1003.350022,N,07621.272772,E,1,19,1.35,53.479,M,-93.488,M,,*6C
$GNGGA,100159.000,1003.350022,N,07621.272772,E,1,19,1.35,53.479,M,-93.488,M,,*6D
$GNGGA,100200.000,1003.350022,N,07621.272772,E,1,19,1.35,53.479,M,-93.488,M,,*62
$GNGGA,100201.000,1003.350022,N,07621.272772,E,1,20,1.34,53.479,M,-93.488,M,,*68
$GNGGA,100202.000,1003.350022,N,07621.272772,E,1,20,1.34,53.479,M,-93.488,M,,*6B
$GNGGA,100203.000,1003.350022,N,07621.272772,E,1,20,1.34,53.479,M,-93.488,M,,*6A
$GNGGA,100204.000,1003.350022,N,07621.272772,E,1,20,1.34,53.479,M,-93.488,M,,*6D
$GNGGA,100205.000,1003.350022,N,07621.272772,E,1,20,1.34,53.479,M,-93.488,M,,*6C
$GNGGA,100206.000,1003.350022,N,07621.272772,E,1,20,1.34,53.479,M,-93.488,M,,*6F
$GNGGA,100207.000,1003.350022,N,07621.272772,E,1,20,1.34,53.479,M,-93.488,M,,*6E
$GNGGA,100208.000,1003.350022,N,07621.272772,E,1,20,1.34,53.479,M,-93.488,M,,*61
$GNGGA,100209.000,1003.350022,N,07621.272772,E,1,20,1.34,53.479,M,-93.488,M,,*60
$GNGGA,100210.000,1003.350022,N,07621.272772,E,1,20,1.34,53.479,M,-93.488,M,,*68
$GNGGA,100211.000,1003.350022,N,07621.272772,E,1,20,1.34,53.479,M,-93.488,M,,*69
$GNGGA,100212.000,1003.350022,N,07621.272772,E,1,20,1.34,53.479,M,-93.488,M,,*6A
$GNGGA,100213.000,1003.350022,N,07621.272772,E,1,20,1.34,53.479,M,-93.488,M,,*6B
$GNGGA,100214.000,1003.350022,N,07621.272772,E,1,20,1.34,53.479,M,-93.488,M,,*6C
$GNGGA,100215.000,1003.350022,N,07621.272772,E,1,20,1.34,53.479,M,-93.488,M,,*6D
$GNGGA,100216.000,1003.350022,N,07621.272772,E,1,20,1.34,53.479,M,-93.488,M,,*6E
$GNGGA,100217.000,1003.350022,N,07621.272772,E,1,20,1.34,53.479,M,-93.488,M,,*6F
$GNGGA,100218.000,1003.350022,N,07621.272772,E,1,20,1.34,53.479,M,-93.488,M,,*60
$GNGGA,100219.000,1003.350022,N,07621.272772,E,1,21,1.33,53.479,M,-93.488,M,,*67
$GNGGA,100220.000,1003.350022,N,07621.272772,E,1,21,1.33,53.479,M,-93.488,M,,*6D
$GNGGA,100221.000,1003.350022,N,07621.272772,E,1,21,1.33,53.479,M,-93.488,M,,*6C
$GNGGA,100222.000,1003.350022,N,07621.272772,E,1,21,1.33,53.479,M,-93.488,M,,*6F
$GNGGA,100223.000,1003.350022,N,07621.272772,E,1,21,1.33,53.479,M,-93.488,M,,*6E
$GNGGA,100224.000,1003.350022,N,07621.272772,E,1,21,1.33,53.479,M,-93.488,M,,*69
$GNGGA,100225.000,1003.350022,N,07621.272772,E,1,21,1.33,53.479,M,-93.488,M,,*68
$GNGGA,100226.000,1003.350022,N,07621.272772,E,1,21,1.33,53.479,M,-93.488,M,,*6B
$GNGGA,100227.000,1003.350022,N,07621.272772,E,1,21,1.33,53.479,M,-93.488,M,,*6A
$GNGGA,100228.000,1003.350022,N,07621.272772,E,1,21,1.33,53.479,M,-93.488,M,,*65
$GNGGA,100229.000,1003.350022,N,07621.272772,E,1,21,1.33,53.479,M,-93.488,M,,*64
$GNGGA,100230.000,1003.350022,N,07621.272772,E,1,21,1.33,53.479,M,-93.488,M,,*6C
$GNGGA,100231.000,1003.350022,N,07621.272772,E,1,21,1.33,53.479,M,-93.488,M,,*6D
$GNGGA,100232.000,1003.350022,N,07621.272772,E,1,21,1.33,53.479,M,-93.488,M,,*6E
$GNGGA,100233.000,1003.350022,N,07621.272772,E,1,21,1.33,53.479,M,-93.488,M,,*6F
$GNGGA,100234.000,1003.350022,N,07621.272772,E,1,21,1.33,53.479,M,-93.488,M,,*68
$GNGGA,100235.000,1003.350022,N,07621.272772,E,1,21,1.33,53.479,M,-93.488,M,,*69
$GNGGA,100236.000,1003.350022,N,07621.272772,E,1,21,1.33,53.479,M,-93.488,M,,*6A
$GNGGA,100237.000,1003.350022,N,07621.272772,E,1,22,1.33,53.479,M,-93.488,M,,*68
$GNGGA,100238.000,1003.350022,N,07621.272772,E,1,22,1.33,53.479,M,-93.488,M,,*67
$GNGGA,100239.000,1003.350022,N,07621.272772,E,1,22,1.33,53.479,M,-93.488,M,,*66
$GNGGA,100240.000,1003.350022,N,07621.272772,E,1,22,1.33,53.479,M,-93.488,M,,*68
$GNGGA,100241.000,1003.350022,N,07621.272772,E,1,22,1.33,53.479,M,-93.488,M,,*69
$GNGGA,100242.000,1003.350022,N,07621.272772,E,1,22,1.33,53.479,M,-93.488,M,,*6A
$GNGGA,100243.000,1003.350022,N,07621.272772,E,1,21,1.35,53.479,M,-93.488,M,,*6E
$GNGGA,100244.000,1003.350022,N,07621.272772,E,1,22,1.33,53.479,M,-93.488,M,,*6C
$GNGGA,100245.000,1003.350022,N,07621.272772,E,1,22,1.33,53.479,M,-93.488,M,,*6D
$GNGGA,100246.000,1003.350022,N,07621.272772,E,1,21,1.33,53.479,M,-93.488,M,,*6D
$GNGGA,100247.000,1003.350022,N,07621.272772,E,1,21,1.33,53.479,M,-93.488,M,,*6C
$GNGGA,100248.000,1003.350022,N,07621.272772,E,1,21,1.33,53.479,M,-93.488,M,,*63
$GNGGA,100249.000,1003.350022,N,07621.272772,E,1,21,1.33,53.479,M,-93.488,M,,*62
$GNGGA,100250.000,1003.350022,N,07621.272772,E,1,21,1.33,53.479,M,-93.488,M,,*6A
$GNGGA,100251.000,1003.350022,N,07621.272772,E,1,21,1.33,53.479,M,-93.488,M,,*6B
$GNGGA,100252.000,1003.350022,N,07621.272772,E,1,21,1.33,53.479,M,-93.488,M,,*68
$GNGGA,100253.000,1003.350022,N,07621.272772,E,1,21,1.33,53.479,M,-93.488,M,,*69
$GNGGA,100254.000,1003.350022,N,07621.272772,E,1,21,1.33,53.479,M,-93.488,M,,*6E
$GNGGA,100255.000,1003.350022,N,07621.272772,E,1,21,1.33,53.479,M,-93.488,M,,*6F
$GNGGA,100256.000,1003.350022,N,07621.272772,E,1,21,1.33,53.479,M,-93.488,M,,*6C
$GNGGA,100257.000,1003.350022,N,07621.272772,E,1,21,1.33,53.479,M,-93.488,M,,*6D
$GNGGA,100258.000,1003.350022,N,07621.272772,E,1,21,1.33,53.479,M,-93.488,M,,*62
$GNGGA,100259.000,1003.350022,N,07621.272772,E,1,21,1.33,53.479,M,-93.488,M,,*63
$GNGGA,100300.000,1003.350022,N,07621.272772,E,1,21,1.33,53.479,M,-93.488,M,,*6E
$GNGGA,100301.000,1003.350022,N,07621.272772,E,1,21,1.33,53.479,M,-93.488,M,,*6F
$GNGGA,100302.000,1003.350022,N,07621.272772,E,1,21,1.33,53.479,M,-93.488,M,,*6C
$GNGGA,100303.000,1003.350022,N,07621.272772,E,1,21,1.33,53.479,M,-93.488,M,,*6D
$GNGGA,100304.000,1003.350022,N,07621.272772,E,1,21,1.33,53.479,M,-93.488,M,,*6A
$GNGGA,100305.000,1003.350022,N,07621.272772,E,1,22,1.33,53.479,M,-93.488,M,,*68
$GNGGA,100306.000,1003.350022,N,07621.272772,E,1,22,1.33,53.479,M,-93.488,M,,*6B
$GNGGA,100307.000,1003.350022,N,07621.272772,E,1,22,1.33,53.479,M,-93.488,M,,*6A
$GNGGA,100308.000,1003.350022,N,07621.272772,E,1,22,1.33,53.479,M,-93.488,M,,*65
$GNGGA,100309.000,1003.350022,N,07621.272772,E,1,22,1.33,53.479,M,-93.488,M,,*64
$GNGGA,100310.000,1003.350022,N,07621.272772,E,1,22,1.33,53.479,M,-93.488,M,,*6C
$GNGGA,100311.000,1003.350022,N,07621.272772,E,1,22,1.33,53.479,M,-93.488,M,,*6D
$GNGGA,100312.000,1003.350022,N,07621.272772,E,1,22,1.33,53.479,M,-93.488,M,,*6E
$GNGGA,100313.000,1003.350022,N,07621.272772,E,1,22,1.33,53.479,M,-93.488,M,,*6F
$GNGGA,100314.000,1003.350022,N,07621.272772,E,1,21,1.33,53.479,M,-93.488,M,,*6B
$GNGGA,100315.000,1003.350022,N,07621.272772,E,1,21,1.33,53.479,M,-93.488,M,,*6A
$GNGGA,100316.000,1003.350022,N,07621.272772,E,1,21,1.33,53.479,M,-93.488,M,,*69
$GNGGA,100317.000,1003.350022,N,07621.272772,E,1,22,1.33,53.479,M,-93.488,M,,*6B
$GNGGA,100318.000,1003.350022,N,07621.272772,E,1,22,1.33,53.479,M,-93.488,M,,*64
$GNGGA,100319.000,1003.350022,N,07621.272772,E,1,22,1.33,53.479,M,-93.488,M,,*65
$GNGGA,100320.000,1003.350022,N,07621.272772,E,1,22,1.33,53.479,M,-93.488,M,,*6F
$GNGGA,100321.000,1003.350022,N,07621.272772,E,1,22,1.33,53.479,M,-93.488,M,,*6E
$GNGGA,100322.000,1003.350022,N,07621.272772,E,1,22,1.33,53.479,M,-93.488,M,,*6D
$GNGGA,100323.000,1003.350022,N,07621.272772,E,1,22,1.33,53.479,M,-93.488,M,,*6C
$GNGGA,100324.000,1003.350022,N,07621.272772,E,1,22,1.33,53.479,M,-93.488,M,,*6B
$GNGGA,100325.000,1003.350022,N,07621.272772,E,1,22,1.33,53.479,M,-93.488,M,,*6A
$GNGGA,100326.000,1003.350022,N,07621.272772,E,1,22,1.33,53.479,M,-93.488,M,,*69
$GNGGA,100327.000,1003.350022,N,07621.272772,E,1,22,1.33,53.479,M,-93.488,M,,*68
$GNGGA,100328.000,1003.350022,N,07621.272772,E,1,22,1.33,53.479,M,-93.488,M,,*67
$GNGGA,100329.000,1003.350022,N,07621.272772,E,1,22,1.33,53.479,M,-93.488,M,,*66
$GNGGA,100330.000,1003.350022,N,07621.272772,E,1,22,1.33,53.479,M,-93.488,M,,*6E
$GNGGA,100331.000,1003.350022,N,07621.272772,E,1,22,1.33,53.479,M,-93.488,M,,*6F
$GNGGA,100332.000,1003.350022,N,07621.272772,E,1,22,1.33,53.479,M,-93.488,M,,*6C
$GNGGA,100333.000,1003.350022,N,07621.272772,E,1,22,1.33,53.479,M,-93.488,M,,*6D
$GNGGA,100334.000,1003.350022,N,07621.272772,E,1,22,1.33,53.479,M,-93.488,M,,*6A
$GNGGA,100335.000,1003.350022,N,07621.272772,E,1,22,1.33,53.479,M,-93.488,M,,*6B
$GNGGA,100336.000,1003.350022,N,07621.272772,E,1,22,1.33,53.479,M,-93.488,M,,*68
$GNGGA,100337.000,1003.350022,N,07621.272772,E,1,22,1.33,53.479,M,-93.488,M,,*69
$GNGGA,100338.000,1003.350022,N,07621.272772,E,1,22,1.33,53.479,M,-93.488,M,,*66
$GNGGA,100339.000,1003.350022,N,07621.272772,E,1,22,1.33,53.479,M,-93.488,M,,*67
$GNGGA,100340.000,1003.350022,N,07621.272772,E,1,22,1.33,53.479,M,-93.488,M,,*69
$GNGGA,100341.000,1003.350022,N,07621.272772,E,1,22,1.33,53.479,M,-93.488,M,,*68
$GNGGA,100342.000,1003.350022,N,07621.272772,E,1,22,1.33,53.479,M,-93.488,M,,*6B
$GNGGA,100343.000,1003.350022,N,07621.272772,E,1,22,1.33,53.479,M,-93.488,M,,*6A
$GNGGA,100344.000,1003.350022,N,07621.272772,E,1,22,1.34,53.479,M,-93.488,M,,*6A
$GNGGA,100345.000,1003.350022,N,07621.272772,E,1,22,1.33,53.479,M,-93.488,M,,*6C
$GNGGA,100346.000,1003.350022,N,07621.272772,E,1,22,1.34,53.479,M,-93.488,M,,*68
$GNGGA,100347.000,1003.350022,N,07621.272772,E,1,22,1.34,53.479,M,-93.488,M,,*69
$GNGGA,100348.000,1003.350022,N,07621.272772,E,1,22,1.34,53.479,M,-93.488,M,,*66
$GNGGA,100349.000,1003.350022,N,07621.272772,E,1,22,1.34,53.479,M,-93.488,M,,*67
$GNGGA,100350.000,1003.350022,N,07621.272772,E,1,22,1.34,53.479,M,-93.488,M,,*6F
$GNGGA,100351.000,1003.350022,N,07621.272772,E,1,22,1.34,53.479,M,-93.488,M,,*6E
$GNGGA,100352.000,1003.350022,N,07621.272772,E,1,22,1.34,53.479,M,-93.488,M,,*6D
$GNGGA,100353.000,1003.350022,N,07621.272772,E,1,22,1.34,53.479,M,-93.488,M,,*6C
$GNGGA,100354.000,1003.350022,N,07621.272772,E,1,22,1.34,53.479,M,-93.488,M,,*6B
$GNGGA,100355.000,1003.350022,N,07621.272772,E,1,22,1.34,53.479,M,-93.488,M,,*6A
$GNGGA,100356.000,1003.350022,N,07621.272772,E,1,22,1.34,53.479,M,-93.488,M,,*69
$GNGGA,100357.000,1003.350022,N,07621.272772,E,1,22,1.34,53.479,M,-93.488,M,,*68
$GNGGA,100358.000,1003.350022,N,07621.272772,E,1,22,1.34,53.479,M,-93.488,M,,*67
$GNGGA,100359.000,1003.350022,N,07621.272772,E,1,22,1.34,53.479,M,-93.488,M,,*66
$GNGGA,100400.000,1003.350022,N,07621.272772,E,1,22,1.34,53.479,M,-93.488,M,,*6D
$GNGGA,100401.000,1003.350022,N,07621.272772,E,1,22,1.34,53.479,M,-93.488,M,,*6C
$GNGGA,100402.000,1003.350022,N,07621.272772,E,1,22,1.34,53.479,M,-93.488,M,,*6F
$GNGGA,100403.000,1003.350022,N,07621.272772,E,1,22,1.34,53.479,M,-93.488,M,,*6E
$GNGGA,100404.000,1003.350022,N,07621.272772,E,1,22,1.34,53.479,M,-93.488,M,,*69
$GNGGA,100405.000,1003.350022,N,07621.272772,E,1,22,1.34,53.479,M,-93.488,M,,*68
$GNGGA,100406.000,1003.350022,N,07621.272772,E,1,22,1.34,53.479,M,-93.488,M,,*6B
$GNGGA,100407.000,1003.350022,N,07621.272772,E,1,22,1.34,53.479,M,-93.488,M,,*6A
$GNGGA,100408.000,1003.350022,N,07621.272772,E,1,22,1.34,53.479,M,-93.488,M,,*65
$GNGGA,100409.000,1003.350022,N,07621.272772,E,1,22,1.34,53.479,M,-93.488,M,,*64
$GNGGA,100410.000,1003.350022,N,07621.272772,E,1,22,1.34,53.479,M,-93.488,M,,*6C
$GNGGA,100411.000,1003.350022,N,07621.272772,E,1,22,1.34,53.479,M,-93.488,M,,*6D
$GNGGA,100412.000,1003.350022,N,07621.272772,E,1,22,1.34,53.479,M,-93.488,M,,*6E
$GNGGA,100413.000,1003.350022,N,07621.272772,E,1,22,1.34,53.479,M,-93.488,M,,*6F
$GNGGA,100414.000,1003.350022,N,07621.272772,E,1,22,1.34,53.479,M,-93.488,M,,*68
$GNGGA,100415.000,1003.350022,N,07621.272772,E,1,22,1.34,53.479,M,-93.488,M,,*69
$GNGGA,100416.000,1003.350022,N,07621.272772,E,1,22,1.34,53.479,M,-93.488,M,,*6A
$GNGGA,100417.000,1003.350022,N,07621.272772,E,1,22,1.34,53.479,M,-93.488,M,,*6B
$GNGGA,100418.000,1003.350022,N,07621.272772,E,1,22,1.34,53.479,M,-93.488,M,,*64
$GNGGA,100419.000,1003.350022,N,07621.272772,E,1,22,1.34,53.479,M,-93.488,M,,*65
$GNGGA,100420.000,1003.350022,N,07621.272772,E,1,22,1.34,53.479,M,-93.488,M,,*6F
$GNGGA,100421.000,1003.350022,N,07621.272772,E,1,22,1.34,53.479,M,-93.488,M,,*6E
$GNGGA,100422.000,1003.350022,N,07621.272772,E,1,22,1.34,53.479,M,-93.488,M,,*6D
$GNGGA,100423.000,1003.350022,N,07621.272772,E,1,22,1.34,53.479,M,-93.488,M,,*6C
$GNGGA,100424.000,1003.350022,N,07621.272772,E,1,22,1.34,53.479,M,-93.488,M,,*6B
$GNGGA,100425.000,1003.350022,N,07621.272772,E,1,22,1.34,53.479,M,-93.488,M,,*6A
$GNGGA,100426.000,1003.350022,N,07621.272772,E,1,22,1.34,53.479,M,-93.488,M,,*69
$GNGGA,100427.000,1003.350022,N,07621.272772,E,1,22,1.34,53.479,M,-93.488,M,,*68
$GNGGA,100428.000,1003.350022,N,07621.272772,E,1,22,1.34,53.479,M,-93.488,M,,*67
$GNGGA,100429.000,1003.350022,N,07621.272772,E,1,22,1.34,53.479,M,-93.488,M,,*66
$GNGGA,100430.000,1003.350022,N,07621.272772,E,1,22,1.34,53.479,M,-93.488,M,,*6E
$GNGGA,100431.000,1003.350022,N,07621.272772,E,1,22,1.34,53.479,M,-93.488,M,,*6F
$GNGGA,100432.000,1003.350022,N,07621.272772,E,1,22,1.34,53.479,M,-93.488,M,,*6C
$GNGGA,100433.000,1003.350022,N,07621.272772,E,1,22,1.34,53.479,M,-93.488,M,,*6D
$GNGGA,100434.000,1003.350022,N,07621.272772,E,1,22,1.34,53.479,M,-93.488,M,,*6A
$GNGGA,100435.000,1003.350022,N,07621.272772,E,1,22,1.34,53.479,M,-93.488,M,,*6B
$GNGGA,100436.000,1003.350022,N,07621.272772,E,1,22,1.34,53.479,M,-93.488,M,,*68
$GNGGA,100437.000,1003.350022,N,07621.272772,E,1,22,1.34,53.479,M,-93.488,M,,*69
$GNGGA,100438.000,1003.350022,N,07621.272772,E,1,22,1.34,53.479,M,-93.488,M,,*66
$GNGGA,100439.000,1003.350022,N,07621.272772,E,1,22,1.34,53.479,M,-93.488,M,,*67
$GNGGA,100440.000,1003.350022,N,07621.272772,E,1,22,1.34,53.479,M,-93.488,M,,*69
$GNGGA,100441.000,1003.350022,N,07621.272772,E,1,22,1.34,53.479,M,-93.488,M,,*68
$GNGGA,100442.000,1003.350022,N,07621.272772,E,1,22,1.34,53.479,M,-93.488,M,,*6B
$GNGGA,100443.000,1003.350022,N,07621.272772,E,1,22,1.34,53.479,M,-93.488,M,,*6A
$GNGGA,100444.000,1003.350022,N,07621.272772,E,1,22,1.34,53.479,M,-93.488,M,,*6D
$GNGGA,100445.000,1003.350022,N,07621.272772,E,1,22,1.34,53.479,M,-93.488,M,,*6C
$GNGGA,100446.000,1003.350022,N,07621.272772,E,1,22,1.34,53.479,M,-93.488,M,,*6F
$GNGGA,100447.000,1003.350022,N,07621.272772,E,1,22,1.34,53.479,M,-93.488,M,,*6E
$GNGGA,100448.000,1003.350022,N,07621.272772,E,1,22,1.34,53.479,M,-93.488,M,,*61
$GNGGA,100449.000,1003.350022,N,07621.272772,E,1,22,1.34,53.479,M,-93.488,M,,*60
$GNGGA,100450.000,1003.350022,N,07621.272772,E,1,22,1.34,53.479,M,-93.488,M,,*68
$GNGGA,100451.000,1003.350022,N,07621.272772,E,1,22,1.34,53.479,M,-93.488,M,,*69
$GNGGA,100452.000,1003.350022,N,07621.272772,E,1,22,1.34,53.479,M,-93.488,M,,*6A
$GNGGA,100453.000,1003.350022,N,07621.272772,E,1,22,1.34,53.479,M,-93.488,M,,*6B
$GNGGA,100454.000,1003.350022,N,07621.272772,E,1,22,1.34,53.479,M,-93.488,M,,*6C
$GNGGA,100455.000,1003.350022,N,07621.272772,E,1,22,1.34,53.479,M,-93.488,M,,*6D
$GNGGA,100456.000,1003.350022,N,07621.272772,E,1,22,1.34,53.479,M,-93.488,M,,*6E
$GNGGA,100457.000,1003.350022,N,07621.272772,E,1,22,1.34,53.479,M,-93.488,M,,*6F
$GNGGA,100458.000,1003.350022,N,07621.272772,E,1,22,1.34,53.479,M,-93.488,M,,*60
$GNGGA,100459.000,1003.350022,N,07621.272772,E,1,22,1.34,53.479,M,-93.488,M,,*61
$GNGGA,100500.000,1003.350022,N,07621.272772,E,1,22,1.34,53.479,M,-93.488,M,,*6C
$GNGGA,100501.000,1003.350022,N,07621.272772,E,1,22,1.34,53.479,M,-93.488,M,,*6D
$GNGGA,100502.000,1003.350022,N,07621.272772,E,1,22,1.34,53.479,M,-93.488,M,,*6E
$GNGGA,100503.000,1003.350022,N,07621.272772,E,1,22,1.34,53.479,M,-93.488,M,,*6F
$GNGGA,100504.000,1003.350022,N,07621.272772,E,1,22,1.34,53.479,M,-93.488,M,,*68
$GNGGA,100505.000,1003.350022,N,07621.272772,E,1,22,1.34,53.479,M,-93.488,M,,*69
$GNGGA,100506.000,1003.350022,N,07621.272772,E,1,22,1.34,53.479,M,-93.488,M,,*6A
$GNGGA,100507.000,1003.350022,N,07621.272772,E,1,22,1.34,53.479,M,-93.488,M,,*6B
$GNGGA,100508.000,1003.350022,N,07621.272772,E,1,22,1.34,53.479,M,-93.488,M,,*64
$GNGGA,100509.000,1003.350022,N,07621.272772,E,1,22,1.34,53.479,M,-93.488,M,,*65
$GNGGA,100510.000,1003.350022,N,07621.272772,E,1,22,1.34,53.479,M,-93.488,M,,*6D
$GNGGA,100511.000,1003.350022,N,07621.272772,E,1,22,1.34,53.479,M,-93.488,M,,*6C
$GNGGA,100512.000,1003.350022,N,07621.272772,E,1,22,1.34,53.479,M,-93.488,M,,*6F
$GNGGA,100513.000,1003.350022,N,07621.272772,E,1,22,1.34,53.479,M,-93.488,M,,*6E
$GNGGA,100514.000,1003.350022,N,07621.272772,E,1,22,1.34,53.479,M,-93.488,M,,*69
$GNGGA,100515.000,1003.350022,N,07621.272772,E,1,22,1.34,53.479,M,-93.488,M,,*68
$GNGGA,100516.000,1003.350022,N,07621.272772,E,1,21,1.36,53.479,M,-93.488,M,,*6A
$GNGGA,100517.000,1003.350022,N,07621.272772,E,1,21,1.36,53.479,M,-93.488,M,,*6B
$GNGGA,100518.000,1003.350022,N,07621.272772,E,1,21,1.36,53.479,M,-93.488,M,,*64
$GNGGA,100519.000,1003.350022,N,07621.272772,E,1,21,1.36,53.479,M,-93.488,M,,*65
$GNGGA,100520.000,1003.350022,N,07621.272772,E,1,21,1.36,53.479,M,-93.488,M,,*6F
$GNGGA,100521.000,1003.350022,N,07621.272772,E,1,21,1.36,53.479,M,-93.488,M,,*6E
$GNGGA,100522.000,1003.350022,N,07621.272772,E,1,21,1.36,53.479,M,-93.488,M,,*6D
$GNGGA,100523.000,1003.350022,N,07621.272772,E,1,21,1.36,53.479,M,-93.488,M,,*6C
$GNGGA,100524.000,1003.350022,N,07621.272772,E,1,21,1.36,53.479,M,-93.488,M,,*6B
$GNGGA,100525.000,1003.350022,N,07621.272772,E,1,21,1.36,53.479,M,-93.488,M,,*6A
$GNGGA,100526.000,1003.350022,N,07621.272772,E,1,21,1.36,53.479,M,-93.488,M,,*69
$GNGGA,100527.000,1003.350022,N,07621.272772,E,1,22,1.34,53.479,M,-93.488,M,,*69
$GNGGA,100528.000,1003.350022,N,07621.272772,E,1,22,1.34,53.479,M,-93.488,M,,*66
$GNGGA,100529.000,1003.350022,N,07621.272772,E,1,22,1.34,53.479,M,-93.488,M,,*67
$GNGGA,100530.000,1003.350022,N,07621.272772,E,1,22,1.34,53.479,M,-93.488,M,,*6F
$GNGGA,100531.000,1003.350022,N,07621.272772,E,1,22,1.34,53.479,M,-93.488,M,,*6E
$GNGGA,100532.000,1003.350022,N,07621.272772,E,1,22,1.34,53.479,M,-93.488,M,,*6D
$GNGGA,100533.000,1003.350022,N,07621.272772,E,1,22,1.34,53.479,M,-93.488,M,,*6C
$GNGGA,100534.000,1003.350022,N,07621.272772,E,1,22,1.34,53.479,M,-93.488,M,,*6B
$GNGGA,100535.000,1003.350022,N,07621.272772,E,1,22,1.34,53.479,M,-93.488,M,,*6A
$GNGGA,100536.000,1003.350022,N,07621.272772,E,1,22,1.34,53.479,M,-93.488,M,,*69
$GNGGA,100537.000,1003.350022,N,07621.272772,E,1,22,1.34,53.479,M,-93.488,M,,*68
$GNGGA,100538.000,1003.350022,N,07621.272772,E,1,22,1.34,53.479,M,-93.488,M,,*67
$GNGGA,100539.000,1003.350022,N,07621.272772,E,1,22,1.34,53.479,M,-93.488,M,,*66
$GNGGA,100540.000,1003.350022,N,07621.272772,E,1,22,1.34,53.479,M,-93.488,M,,*68
$GNGGA,100541.000,1003.350022,N,07621.272772,E,1,21,1.36,53.479,M,-93.488,M,,*68
$GNGGA,100542.000,1003.350022,N,07621.272772,E,1,21,1.36,53.479,M,-93.488,M,,*6B
$GNGGA,100543.000,1003.350022,N,07621.272772,E,1,21,1.36,53.479,M,-93.488,M,,*6A
$GNGGA,100544.000,1003.350022,N,07621.272772,E,1,21,1.36,53.479,M,-93.488,M,,*6D
$GNGGA,100545.000,1003.350022,N,07621.272772,E,1,21,1.36,53.479,M,-93.488,M,,*6C
$GNGGA,100546.000,1003.350022,N,07621.272772,E,1,21,1.36,53.479,M,-93.488,M,,*6F
$GNGGA,100547.000,1003.350022,N,07621.272772,E,1,21,1.36,53.479,M,-93.488,M,,*6E
$GNGGA,100548.000,1003.350022,N,07621.272772,E,1,21,1.36,53.479,M,-93.488,M,,*61
$GNGGA,100549.000,1003.350022,N,07621.272772,E,1,22,1.34,53.479,M,-93.488,M,,*61
$GNGGA,100550.000,1003.350022,N,07621.272772,E,1,22,1.34,53.479,M,-93.488,M,,*69
$GNGGA,100551.000,1003.350022,N,07621.272772,E,1,22,1.34,53.479,M,-93.488,M,,*68
$GNGGA,100552.000,1003.350022,N,07621.272772,E,1,22,1.34,53.479,M,-93.488,M,,*6B
$GNGGA,100553.000,1003.350022,N,07621.272772,E,1,22,1.34,53.479,M,-93.488,M,,*6A
$GNGGA,100554.000,1003.350022,N,07621.272772,E,1,22,1.34,53.479,M,-93.488,M,,*6D
$GNGGA,100555.000,1003.350022,N,07621.272772,E,1,22,1.34,53.479,M,-93.488,M,,*6C
$GNGGA,100556.000,1003.350022,N,07621.272772,E,1,22,1.34,53.479,M,-93.488,M,,*6F
$GNGGA,100557.000,1003.350022,N,07621.272772,E,1,22,1.34,53.479,M,-93.488,M,,*6E
$GNGGA,100558.000,1003.350022,N,07621.272772,E,1,22,1.34,53.479,M,-93.488,M,,*61
$GNGGA,100559.000,1003.350022,N,07621.272772,E,1,22,1.34,53.479,M,-93.488,M,,*60
$GNGGA,100600.000,1003.350022,N,07621.272772,E,1,22,1.34,53.479,M,-93.488,M,,*6F
$GNGGA,100601.000,1003.350022,N,07621.272772,E,1,22,1.34,53.479,M,-93.488,M,,*6E
$GNGGA,100602.000,1003.350022,N,07621.272772,E,1,22,1.34,53.479,M,-93.488,M,,*6D
$GNGGA,100603.000,1003.350022,N,07621.272772,E,1,22,1.34,53.479,M,-93.488,M,,*6C
$GNGGA,100604.000,1003.350022,N,07621.272772,E,1,22,1.34,53.479,M,-93.488,M,,*6B
$GNGGA,100605.000,1003.350022,N,07621.272772,E,1,22,1.34,53.479,M,-93.488,M,,*6A
$GNGGA,100606.000,1003.350022,N,07621.272772,E,1,22,1.34,53.479,M,-93.488,M,,*69
$GNGGA,100607.000,1003.350022,N,07621.272772,E,1,22,1.34,53.479,M,-93.488,M,,*68
$GNGGA,100608.000,1003.350022,N,07621.272772,E,1,22,1.34,53.479,M,-93.488,M,,*67
$GNGGA,100609.000,1003.350022,N,07621.272772,E,1,22,1.34,53.479,M,-93.488,M,,*66
$GNGGA,100610.000,1003.350022,N,07621.272772,E,1,22,1.34,53.479,M,-93.488,M,,*6E
$GNGGA,100611.000,1003.350022,N,07621.272772,E,1,22,1.34,53.479,M,-93.488,M,,*6F
$GNGGA,100612.000,1003.350022,N,07621.272772,E,1,22,1.34,53.479,M,-93.488,M,,*6C
$GNGGA,100613.000,1003.350022,N,07621.272772,E,1,22,1.34,53.479,M,-93.488,M,,*6D
$GNGGA,100614.000,1003.350022,N,07621.272772,E,1,22,1.34,53.479,M,-93.488,M,,*6A
$GNGGA,100615.000,1003.350022,N,07621.272772,E,1,22,1.34,53.479,M,-93.488,M,,*6B
$GNGGA,100616.000,1003.350022,N,07621.272772,E,1,22,1.34,53.479,M,-93.488,M,,*68
$GNGGA,100617.000,1003.350022,N,07621.272772,E,1,22,1.34,53.479,M,-93.488,M,,*69
$GNGGA,100618.000,1003.350022,N,07621.272772,E,1,22,1.34,53.479,M,-93.488,M,,*66
$GNGGA,100619.000,1003.350022,N,07621.272772,E,1,22,1.34,53.479,M,-93.488,M,,*67
$GNGGA,100620.000,1003.350022,N,07621.272772,E,1,22,1.34,53.479,M,-93.488,M,,*6D
$GNGGA,100621.000,1003.350022,N,07621.272772,E,1,22,1.34,53.479,M,-93.488,M,,*6C
$GNGGA,100622.000,1003.350022,N,07621.272772,E,1,22,1.34,53.479,M,-93.488,M,,*6F
$GNGGA,100623.000,1003.350022,N,07621.272772,E,1,22,1.34,53.479,M,-93.488,M,,*6E
$GNGGA,100624.000,1003.350022,N,07621.272772,E,1,22,1.34,53.479,M,-93.488,M,,*69
$GNGGA,100625.000,1003.350022,N,07621.272772,E,1,22,1.34,53.479,M,-93.488,M,,*68
$GNGGA,100626.000,1003.350022,N,07621.272772,E,1,22,1.34,53.479,M,-93.488,M,,*6B
$GNGGA,100627.000,1003.350022,N,07621.272772,E,1,22,1.34,53.479,M,-93.488,M,,*6A
$GNGGA,100628.000,1003.350022,N,07621.272772,E,1,22,1.34,53.479,M,-93.488,M,,*65
$GNGGA,100629.000,1003.350022,N,07621.272772,E,1,21,1.36,53.479,M,-93.488,M,,*65
$GNGGA,100630.000,1003.350022,N,07621.272772,E,1,22,1.34,53.479,M,-93.488,M,,*6C
$GNGGA,100631.000,1003.350022,N,07621.272772,E,1,22,1.34,53.479,M,-93.488,M,,*6D
$GNGGA,100632.000,1003.350022,N,07621.272772,E,1,22,1.34,53.479,M,-93.488,M,,*6E
$GNGGA,100633.000,1003.350022,N,07621.272772,E,1,22,1.34,53.479,M,-93.488,M,,*6F
$GNGGA,100634.000,1003.350022,N,07621.272772,E,1,22,1.34,53.479,M,-93.488,M,,*68
$GNGGA,100635.000,1003.350022,N,07621.272772,E,1,22,1.34,53.479,M,-93.488,M,,*69
$GNGGA,100636.000,1003.350022,N,07621.272772,E,1,21,1.36,53.479,M,-93.488,M,,*6B
$GNGGA,100637.000,1003.350022,N,07621.272772,E,1,21,1.36,53.479,M,-93.488,M,,*6A
$GNGGA,100638.000,1003.350022,N,07621.272772,E,1,21,1.36,53.479,M,-93.488,M,,*65
$GNGGA,100639.000,1003.350022,N,07621.272772,E,1,21,1.36,53.479,M,-93.488,M,,*64
$GNGGA,100640.000,1003.350022,N,07621.272772,E,1,21,1.36,53.479,M,-93.488,M,,*6A
$GNGGA,100641.000,1003.350022,N,07621.272772,E,1,21,1.36,53.479,M,-93.488,M,,*6B
$GNGGA,100642.000,1003.350022,N,07621.272772,E,1,21,1.36,53.479,M,-93.488,M,,*68
$GNGGA,100643.000,1003.350022,N,07621.272772,E,1,21,1.36,53.479,M,-93.488,M,,*69
$GNGGA,100644.000,1003.350022,N,07621.272772,E,1,21,1.36,53.479,M,-93.488,M,,*6E
$GNGGA,100645.000,1003.350022,N,07621.272772,E,1,21,1.36,53.479,M,-93.488,M,,*6F
$GNGGA,100646.000,1003.350022,N,07621.272772,E,1,22,1.34,53.479,M,-93.488,M,,*6D
$GNGGA,100647.000,1003.350022,N,07621.272772,E,1,22,1.34,53.479,M,-93.488,M,,*6C
$GNGGA,100648.000,1003.350022,N,07621.272772,E,1,22,1.34,53.479,M,-93.488,M,,*63
$GNGGA,100649.000,1003.350022,N,07621.272772,E,1,22,1.34,53.479,M,-93.488,M,,*62
$GNGGA,100650.000,1003.350022,N,07621.272772,E,1,22,1.35,53.479,M,-93.488,M,,*6B
$GNGGA,100651.000,1003.350022,N,07621.272772,E,1,22,1.35,53.479,M,-93.488,M,,*6A
$GNGGA,100652.000,1003.350022,N,07621.272772,E,1,22,1.35,53.479,M,-93.488,M,,*69
$GNGGA,100653.000,1003.350022,N,07621.272772,E,1,22,1.35,53.479,M,-93.488,M,,*68
$GNGGA,100654.000,1003.350022,N,07621.272772,E,1,22,1.35,53.479,M,-93.488,M,,*6F
$GNGGA,100655.000,1003.350022,N,07621.272772,E,1,22,1.35,53.479,M,-93.488,M,,*6E
$GNGGA,100656.000,1003.350022,N,07621.272772,E,1,22,1.35,53.479,M,-93.488,M,,*6D
$GNGGA,100657.000,1003.350022,N,07621.272772,E,1,22,1.35,53.479,M,-93.488,M,,*6C
$GNGGA,100658.000,1003.350022,N,07621.272772,E,1,22,1.35,53.479,M,-93.488,M,,*63
$GNGGA,100659.000,1003.350022,N,07621.272772,E,1,22,1.35,53.479,M,-93.488,M,,*62
$GNGGA,100700.000,1003.350022,N,07621.272772,E,1,22,1.35,53.479,M,-93.488,M,,*6F
$GNGGA,100701.000,1003.350022,N,07621.272772,E,1,22,1.35,53.479,M,-93.488,M,,*6E
$GNGGA,100702.000,1003.350022,N,07621.272772,E,1,21,1.36,53.479,M,-93.488,M,,*6D
$GNGGA,100703.000,1003.350022,N,07621.272772,E,1,21,1.36,53.479,M,-93.488,M,,*6C
$GNGGA,100704.000,1003.350022,N,07621.272772,E,1,21,1.36,53.479,M,-93.488,M,,*6B
$GNGGA,100705.000,1003.350022,N,07621.272772,E,1,21,1.36,53.479,M,-93.488,M,,*6A
$GNGGA,100706.000,1003.350022,N,07621.272772,E,1,22,1.35,53.479,M,-93.488,M,,*69
$GNGGA,100707.000,1003.350022,N,07621.272772,E,1,22,1.35,53.479,M,-93.488,M,,*68
$GNGGA,100708.000,1003.350022,N,07621.272772,E,1,22,1.35,53.479,M,-93.488,M,,*67
$GNGGA,100709.000,1003.350022,N,07621.272772,E,1,22,1.35,53.479,M,-93.488,M,,*66
$GNGGA,100710.000,1003.350022,N,07621.272772,E,1,22,1.35,53.479,M,-93.488,M,,*6E
$GNGGA,100711.000,1003.350022,N,07621.272772,E,1,22,1.35,53.479,M,-93.488,M,,*6F
$GNGGA,100712.000,1003.350022,N,07621.272772,E,1,22,1.35,53.479,M,-93.488,M,,*6C
$GNGGA,100713.000,1003.350022,N,07621.272772,E,1,22,1.35,53.479,M,-93.488,M,,*6D
$GNGGA,100714.000,1003.350022,N,07621.272772,E,1,22,1.35,53.479,M,-93.488,M,,*6A
$GNGGA,100715.000,1003.350022,N,07621.272772,E,1,22,1.35,53.479,M,-93.488,M,,*6B
$GNGGA,100716.000,1003.350022,N,07621.272772,E,1,22,1.35,53.479,M,-93.488,M,,*68
$GNGGA,100717.000,1003.350022,N,07621.272772,E,1,22,1.35,53.479,M,-93.488,M,,*69
$GNGGA,100718.000,1003.350022,N,07621.272772,E,1,22,1.35,53.479,M,-93.488,M,,*66
$GNGGA,100719.000,1003.350022,N,07621.272772,E,1,22,1.35,53.479,M,-93.488,M,,*67
$GNGGA,100720.000,1003.350022,N,07621.272772,E,1,22,1.35,53.479,M,-93.488,M,,*6D
$GNGGA,100721.000,1003.350022,N,07621.272772,E,1,22,1.35,53.479,M,-93.488,M,,*6C
$GNGGA,100722.000,1003.350022,N,07621.272772,E,1,22,1.35,53.479,M,-93.488,M,,*6F
$GNGGA,100723.000,1003.350022,N,07621.272772,E,1,22,1.35,53.479,M,-93.488,M,,*6E
$GNGGA,100724.000,1003.350022,N,07621.272772,E,1,22,1.35,53.479,M,-93.488,M,,*69
$GNGGA,100725.000,1003.350022,N,07621.272772,E,1,22,1.35,53.479,M,-93.488,M,,*68
$GNGGA,100726.000,1003.350022,N,07621.272772,E,1,22,1.35,53.479,M,-93.488,M,,*6B
$GNGGA,100727.000,1003.350022,N,07621.272772,E,1,21,1.42,53.479,M,-93.488,M,,*69
$GNGGA,100728.000,1003.350022,N,07621.272772,E,1,22,1.35,53.479,M,-93.488,M,,*65
$GNGGA,100729.000,1003.350022,N,07621.272772,E,1,22,1.35,53.479,M,-93.488,M,,*64
$GNGGA,100730.000,1003.350022,N,07621.272772,E,1,22,1.35,53.479,M,-93.488,M,,*6C
$GNGGA,100731.000,1003.350022,N,07621.272772,E,1,22,1.35,53.479,M,-93.488,M,,*6D
$GNGGA,100732.000,1003.350022,N,07621.272772,E,1,22,1.35,53.479,M,-93.488,M,,*6E
$GNGGA,100733.000,1003.350022,N,07621.272772,E,1,22,1.35,53.479,M,-93.488,M,,*6F
$GNGGA,100734.000,1003.350022,N,07621.272772,E,1,22,1.35,53.479,M,-93.488,M,,*68
$GNGGA,100735.000,1003.350022,N,07621.272772,E,1,22,1.35,53.479,M,-93.488,M,,*69
$GNGGA,100736.000,1003.350022,N,07621.272772,E,1,22,1.35,53.479,M,-93.488,M,,*6A
$GNGGA,100737.000,1003.350022,N,07621.272772,E,1,22,1.35,53.479,M,-93.488,M,,*6B
$GNGGA,100738.000,1003.350022,N,07621.272772,E,1,22,1.35,53.479,M,-93.488,M,,*64
$GNGGA,100739.000,1003.350022,N,07621.272772,E,1,22,1.35,53.479,M,-93.488,M,,*65
$GNGGA,100740.000,1003.350022,N,07621.272772,E,1,22,1.35,53.479,M,-93.488,M,,*6B
$GNGGA,100741.000,1003.350022,N,07621.272772,E,1,22,1.35,53.479,M,-93.488,M,,*6A
$GNGGA,100742.000,1003.350022,N,07621.272772,E,1,22,1.35,53.479,M,-93.488,M,,*69
$GNGGA,100743.000,1003.350022,N,07621.272772,E,1,22,1.35,53.479,M,-93.488,M,,*68
$GNGGA,100744.000,1003.350022,N,07621.272772,E,1,22,1.35,53.479,M,-93.488,M,,*6F
$GNGGA,100745.000,1003.350022,N,07621.272772,E,1,22,1.35,53.479,M,-93.488,M,,*6E
$GNGGA,100746.000,1003.350022,N,07621.272772,E,1,22,1.35,53.479,M,-93.488,M,,*6D
$GNGGA,100747.000,1003.350022,N,07621.272772,E,1,22,1.35,53.479,M,-93.488,M,,*6C
$GNGGA,100748.000,1003.350022,N,07621.272772,E,1,22,1.35,53.479,M,-93.488,M,,*63
$GNGGA,100749.000,1003.350022,N,07621.272772,E,1,22,1.35,53.479,M,-93.488,M,,*62
$GNGGA,100750.000,1003.350022,N,07621.272772,E,1,22,1.35,53.479,M,-93.488,M,,*6A
$GNGGA,100751.000,1003.350022,N,07621.272772,E,1,22,1.35,53.479,M,-93.488,M,,*6B
$GNGGA,100752.000,1003.350022,N,07621.272772,E,1,22,1.35,53.479,M,-93.488,M,,*68
$GNGGA,100753.000,1003.350022,N,07621.272772,E,1,22,1.35,53.479,M,-93.488,M,,*69
$GNGGA,100754.000,1003.350022,N,07621.272772,E,1,22,1.35,53.479,M,-93.488,M,,*6E
$GNGGA,100755.000,1003.350022,N,07621.272772,E,1,22,1.35,53.479,M,-93.488,M,,*6F
$GNGGA,100756.000,1003.350022,N,07621.272772,E,1,22,1.35,53.479,M,-93.488,M,,*6C
$GNGGA,100757.000,1003.350022,N,07621.272772,E,1,22,1.35,53.479,M,-93.488,M,,*6D
$GNGGA,100758.000,1003.350022,N,07621.272772,E,1,22,1.35,53.479,M,-93.488,M,,*62
$GNGGA,100759.000,1003.350022,N,07621.272772,E,1,22,1.35,53.479,M,-93.488,M,,*63
$GNGGA,100800.000,1003.350022,N,07621.272772,E,1,22,1.35,53.479,M,-93.488,M,,*60
$GNGGA,100801.000,1003.350022,N,07621.272772,E,1,22,1.35,53.479,M,-93.488,M,,*61
$GNGGA,100802.000,1003.350022,N,07621.272772,E,1,22,1.35,53.479,M,-93.488,M,,*62
$GNGGA,100803.000,1003.350022,N,07621.272772,E,1,22,1.35,53.479,M,-93.488,M,,*63
$GNGGA,100804.000,1003.350022,N,07621.272772,E,1,22,1.35,53.479,M,-93.488,M,,*64
$GNGGA,100805.000,1003.350022,N,07621.272772,E,1,22,1.35,53.479,M,-93.488,M,,*65
$GNGGA,100806.000,1003.350022,N,07621.272772,E,1,22,1.35,53.479,M,-93.488,M,,*66
$GNGGA,100807.000,1003.350022,N,07621.272772,E,1,22,1.35,53.479,M,-93.488,M,,*67
$GNGGA,100808.000,1003.350022,N,07621.272772,E,1,22,1.35,53.479,M,-93.488,M,,*68
$GNGGA,100809.000,1003.350022,N,07621.272772,E,1,22,1.35,53.479,M,-93.488,M,,*69
$GNGGA,100810.000,1003.350022,N,07621.272772,E,1,22,1.35,53.479,M,-93.488,M,,*61
$GNGGA,100811.000,1003.350022,N,07621.272772,E,1,22,1.35,53.479,M,-93.488,M,,*60
$GNGGA,100812.000,1003.350022,N,07621.272772,E,1,22,1.35,53.479,M,-93.488,M,,*63
$GNGGA,100813.000,1003.350022,N,07621.272772,E,1,22,1.35,53.479,M,-93.488,M,,*62
$GNGGA,100814.000,1003.350022,N,07621.272772,E,1,22,1.35,53.479,M,-93.488,M,,*65
$GNGGA,100815.000,1003.350022,N,07621.272772,E,1,22,1.35,53.479,M,-93.488,M,,*64
$GNGGA,100816.000,1003.350022,N,07621.272772,E,1,22,1.35,53.479,M,-93.488,M,,*67
$GNGGA,100817.000,1003.350022,N,07621.272772,E,1,22,1.35,53.479,M,-93.488,M,,*66
$GNGGA,100818.000,1003.350022,N,07621.272772,E,1,22,1.35,53.479,M,-93.488,M,,*69
$GNGGA,100819.000,1003.350022,N,07621.272772,E,1,22,1.35,53.479,M,-93.488,M,,*68
$GNGGA,100820.000,1003.350022,N,07621.272772,E,1,22,1.35,53.479,M,-93.488,M,,*62
$GNGGA,100821.000,1003.350022,N,07621.272772,E,1,22,1.35,53.479,M,-93.488,M,,*63
$GNGGA,100822.000,1003.350022,N,07621.272772,E,1,22,1.35,53.479,M,-93.488,M,,*60
$GNGGA,100823.000,1003.350022,N,07621.272772,E,1,22,1.35,53.479,M,-93.488,M,,*61
$GNGGA,100824.000,1003.350022,N,07621.272772,E,1,22,1.35,53.479,M,-93.488,M,,*66
$GNGGA,100825.000,1003.350022,N,07621.272772,E,1,22,1.35,53.479,M,-93.488,M,,*67
$GNGGA,100826.000,1003.350022,N,07621.272772,E,1,22,1.35,53.479,M,-93.488,M,,*64
$GNGGA,100827.000,1003.350022,N,07621.272772,E,1,22,1.35,53.479,M,-93.488,M,,*65
$GNGGA,100828.000,1003.350022,N,07621.272772,E,1,22,1.35,53.479,M,-93.488,M,,*6A
$GNGGA,100829.000,1003.350022,N,07621.272772,E,1,22,1.35,53.479,M,-93.488,M,,*6B
$GNGGA,100830.000,1003.350022,N,07621.272772,E,1,22,1.35,53.479,M,-93.488,M,,*63
$GNGGA,100831.000,1003.350022,N,07621.272772,E,1,22,1.35,53.479,M,-93.488,M,,*62
$GNGGA,100832.000,1003.350022,N,07621.272772,E,1,22,1.35,53.479,M,-93.488,M,,*61
$GNGGA,100833.000,1003.350022,N,07621.272772,E,1,22,1.35,53.479,M,-93.488,M,,*60
$GNGGA,100834.000,1003.350022,N,07621.272772,E,1,22,1.35,53.479,M,-93.488,M,,*67
$GNGGA,100835.000,1003.350022,N,07621.272772,E,1,22,1.35,53.479,M,-93.488,M,,*66
$GNGGA,100836.000,1003.350022,N,07621.272772,E,1,22,1.35,53.479,M,-93.488,M,,*65
$GNGGA,100837.000,1003.350022,N,07621.272772,E,1,22,1.35,53.479,M,-93.488,M,,*64
$GNGGA,100838.000,1003.350022,N,07621.272772,E,1,22,1.35,53.479,M,-93.488,M,,*6B
$GNGGA,100839.000,1003.350022,N,07621.272772,E,1,22,1.35,53.479,M,-93.488,M,,*6A
$GNGGA,100840.000,1003.350022,N,07621.272772,E,1,22,1.35,53.479,M,-93.488,M,,*64
$GNGGA,100841.000,1003.350022,N,07621.272772,E,1,22,1.35,53.479,M,-93.488,M,,*65
$GNGGA,100842.000,1003.350022,N,07621.272772,E,1,22,1.35,53.479,M,-93.488,M,,*66
$GNGGA,100843.000,1003.350022,N,07621.272772,E,1,22,1.35,53.479,M,-93.488,M,,*67
$GNGGA,100844.000,1003.350022,N,07621.272772,E,1,22,1.35,53.479,M,-93.488,M,,*60
$GNGGA,100845.000,1003.350022,N,07621.272772,E,1,22,1.35,53.479,M,-93.488,M,,*61
$GNGGA,100846.000,1003.350022,N,07621.272772,E,1,22,1.35,53.479,M,-93.488,M,,*62
$GNGGA,100847.000,1003.350022,N,07621.272772,E,1,22,1.35,53.479,M,-93.488,M,,*63
$GNGGA,100848.000,1003.350022,N,07621.272772,E,1,22,1.35,53.479,M,-93.488,M,,*6C
$GNGGA,100849.000,1003.350022,N,07621.272772,E,1,22,1.35,53.479,M,-93.488,M,,*6D
$GNGGA,100850.000,1003.350022,N,07621.272772,E,1,22,1.35,53.479,M,-93.488,M,,*65
$GNGGA,100851.000,1003.350022,N,07621.272772,E,1,22,1.35,53.479,M,-93.488,M,,*64
$GNGGA,100852.000,1003.350022,N,07621.272772,E,1,22,1.35,53.479,M,-93.488,M,,*67
$GNGGA,100853.000,1003.350022,N,07621.272772,E,1,22,1.35,53.479,M,-93.488,M,,*66
$GNGGA,100854.000,1003.350022,N,07621.272772,E,1,22,1.35,53.479,M,-93.488,M,,*61
$GNGGA,100855.000,1003.350022,N,07621.272772,E,1,22,1.35,53.479,M,-93.488,M,,*60
$GNGGA,100856.000,1003.350022,N,07621.272772,E,1,22,1.35,53.479,M,-93.488,M,,*63
$GNGGA,100857.000,1003.350022,N,07621.272772,E,1,22,1.35,53.479,M,-93.488,M,,*62
$GNGGA,100858.000,1003.350022,N,07621.272772,E,1,22,1.35,53.479,M,-93.488,M,,*6D
$GNGGA,100859.000,1003.350022,N,07621.272772,E,1,22,1.35,53.479,M,-93.488,M,,*6C
$GNGGA,100900.000,1003.350022,N,07621.272772,E,1,22,1.35,53.479,M,-93.488,M,,*61
$GNGGA,100901.000,1003.350022,N,07621.272772,E,1,22,1.35,53.479,M,-93.488,M,,*60
$GNGGA,100902.000,1003.350022,N,07621.272772,E,1,22,1.35,53.479,M,-93.488,M,,*63
$GNGGA,100903.000,1003.350022,N,07621.272772,E,1,22,1.35,53.479,M,-93.488,M,,*62
$GNGGA,100904.000,1003.350022,N,07621.272772,E,1,22,1.35,53.479,M,-93.488,M,,*65
$GNGGA,100905.000,1003.350022,N,07621.272772,E,1,22,1.35,53.479,M,-93.488,M,,*64
$GNGGA,100906.000,1003.350022,N,07621.272772,E,1,22,1.35,53.479,M,-93.488,M,,*67
$GNGGA,100907.000,1003.350022,N,07621.272772,E,1,22,1.35,53.479,M,-93.488,M,,*66
$GNGGA,100908.000,1003.350022,N,07621.272772,E,1,22,1.35,53.479,M,-93.488,M,,*69
$GNGGA,100909.000,1003.350022,N,07621.272772,E,1,22,1.35,53.479,M,-93.488,M,,*68
$GNGGA,100910.000,1003.350022,N,07621.272772,E,1,22,1.35,53.479,M,-93.488,M,,*60
$GNGGA,100911.000,1003.350022,N,07621.272772,E,1,22,1.35,53.479,M,-93.488,M,,*61
$GNGGA,100912.000,1003.350022,N,07621.272772,E,1,22,1.35,53.479,M,-93.488,M,,*62
$GNGGA,100913.000,1003.350022,N,07621.272772,E,1,22,1.35,53.479,M,-93.488,M,,*63
$GNGGA,100914.000,1003.350022,N,07621.272772,E,1,22,1.35,53.479,M,-93.488,M,,*64
$GNGGA,100915.000,1003.350022,N,07621.272772,E,1,22,1.35,53.479,M,-93.488,M,,*65
$GNGGA,100916.000,1003.350022,N,07621.272772,E,1,21,1.35,53.479,M,-93.488,M,,*65
$GNGGA,100917.000,1003.350022,N,07621.272772,E,1,21,1.35,53.479,M,-93.488,M,,*64
$GNGGA,100918.000,1003.350022,N,07621.272772,E,1,21,1.35,53.479,M,-93.488,M,,*6B
$GNGGA,100919.000,1003.350022,N,07621.272772,E,1,21,1.35,53.479,M,-93.488,M,,*6A
$GNGGA,100920.000,1003.350022,N,07621.272772,E,1,21,1.35,53.479,M,-93.488,M,,*60
$GNGGA,100921.000,1003.350022,N,07621.272772,E,1,21,1.35,53.479,M,-93.488,M,,*61
$GNGGA,100922.000,1003.350022,N,07621.272772,E,1,21,1.35,53.479,M,-93.488,M,,*62
$GNGGA,100923.000,1003.350022,N,07621.272772,E,1,21,1.35,53.479,M,-93.488,M,,*63
$GNGGA,100924.000,1003.350022,N,07621.272772,E,1,21,1.35,53.479,M,-93.488,M,,*64
$GNGGA,100925.000,1003.350022,N,07621.272772,E,1,21,1.35,53.479,M,-93.488,M,,*65
$GNGGA,100926.000,1003.350022,N,07621.272772,E,1,21,1.35,53.479,M,-93.488,M,,*66
$GNGGA,100927.000,1003.350022,N,07621.272772,E,1,21,1.35,53.479,M,-93.488,M,,*67
$GNGGA,100928.000,1003.350022,N,07621.272772,E,1,21,1.35,53.479,M,-93.488,M,,*68
$GNGGA,100929.000,1003.350022,N,07621.272772,E,1,21,1.35,53.479,M,-93.488,M,,*69
$GNGGA,100930.000,1003.350022,N,07621.272772,E,1,21,1.35,53.479,M,-93.488,M,,*61
$GNGGA,100931.000,1003.350022,N,07621.272772,E,1,21,1.35,53.479,M,-93.488,M,,*60
$GNGGA,100932.000,1003.350022,N,07621.272772,E,1,21,1.35,53.479,M,-93.488,M,,*63
$GNGGA,100933.000,1003.350022,N,07621.272772,E,1,21,1.35,53.479,M,-93.488,M,,*62
$GNGGA,100934.000,1003.350022,N,07621.272772,E,1,21,1.35,53.479,M,-93.488,M,,*65
$GNGGA,100935.000,1003.350022,N,07621.272772,E,1,21,1.35,53.479,M,-93.488,M,,*64
$GNGGA,100936.000,1003.350022,N,07621.272772,E,1,21,1.35,53.479,M,-93.488,M,,*67
$GNGGA,100937.000,1003.350022,N,07621.272772,E,1,21,1.35,53.479,M,-93.488,M,,*66
$GNGGA,100938.000,1003.350022,N,07621.272772,E,1,21,1.35,53.479,M,-93.488,M,,*69
$GNGGA,100939.000,1003.350022,N,07621.272772,E,1,21,1.35,53.479,M,-93.488,M,,*68
$GNGGA,100940.000,1003.350022,N,07621.272772,E,1,21,1.35,53.479,M,-93.488,M,,*66
$GNGGA,100941.000,1003.350022,N,07621.272772,E,1,21,1.35,53.479,M,-93.488,M,,*67
$GNGGA,100942.000,1003.350022,N,07621.272772,E,1,21,1.35,53.479,M,-93.488,M,,*64
$GNGGA,100943.000,1003.350022,N,07621.272772,E,1,21,1.35,53.479,M,-93.488,M,,*65
$GNGGA,100944.000,1003.350022,N,07621.272772,E,1,21,1.35,53.479,M,-93.488,M,,*62
$GNGGA,100945.000,1003.350022,N,07621.272772,E,1,21,1.35,53.479,M,-93.488,M,,*63
$GNGGA,100946.000,1003.350022,N,07621.272772,E,1,21,1.35,53.479,M,-93.488,M,,*60
$GNGGA,100947.000,1003.350022,N,07621.272772,E,1,21,1.35,53.479,M,-93.488,M,,*61
$GNGGA,100948.000,1003.350022,N,07621.272772,E,1,21,1.35,53.479,M,-93.488,M,,*6E
$GNGGA,100949.000,1003.350022,N,07621.272772,E,1,21,1.35,53.479,M,-93.488,M,,*6F
$GNGGA,100950.000,1003.350022,N,07621.272772,E,1,21,1.35,53.479,M,-93.488,M,,*67
$GNGGA,100951.000,1003.350022,N,07621.272772,E,1,21,1.35,53.479,M,-93.488,M,,*66
$GNGGA,100952.000,1003.350022,N,07621.272772,E,1,21,1.35,53.479,M,-93.488,M,,*65
$GNGGA,100953.000,1003.350022,N,07621.272772,E,1,21,1.35,53.479,M,-93.488,M,,*64
$GNGGA,100954.000,1003.350022,N,07621.272772,E,1,21,1.35,53.479,M,-93.488,M,,*63
$GNGGA,100955.000,1003.350022,N,07621.272772,E,1,21,1.35,53.479,M,-93.488,M,,*62
$GNGGA,100956.000,1003.350022,N,07621.272772,E,1,21,1.35,53.479,M,-93.488,M,,*61
$GNGGA,100957.000,1003.350022,N,07621.272772,E,1,21,1.35,53.479,M,-93.488,M,,*60
$GNGGA,100958.000,1003.350022,N,07621.272772,E,1,21,1.35,53.479,M,-93.488,M,,*6F
$GNGGA,100959.000,1003.345204,N,07621.270246,E,1,21,1.35,53.471,M,-93.488,M,,*64
$GNGGA,101000.000,1003.345180,N,07621.270216,E,1,21,1.35,53.488,M,-93.488,M,,*6C
$GNGGA,101001.000,1003.345096,N,07621.270192,E,1,21,1.35,53.491,M,-93.488,M,,*6C
$GNGGA,101002.000,1003.345066,N,07621.270180,E,1,21,1.35,53.489,M,-93.488,M,,*6A
$GNGGA,101003.000,1003.345066,N,07621.270180,E,1,21,1.35,53.489,M,-93.488,M,,*6B
$GNGGA,101004.000,1003.345066,N,07621.270180,E,1,21,1.35,53.489,M,-93.488,M,,*6C
$GNGGA,101005.000,1003.345066,N,07621.270180,E,1,21,1.35,53.489,M,-93.488,M,,*6D
$GNGGA,101006.000,1003.345066,N,07621.270180,E,1,21,1.35,53.489,M,-93.488,M,,*6E
$GNGGA,101007.000,1003.345066,N,07621.270180,E,1,21,1.35,53.489,M,-93.488,M,,*6F
$GNGGA,101008.000,1003.345066,N,07621.270180,E,1,21,1.35,53.489,M,-93.488,M,,*60
$GNGGA,101009.000,1003.345066,N,07621.270180,E,1,21,1.35,53.489,M,-93.488,M,,*61
$GNGGA,101010.000,1003.345066,N,07621.270180,E,1,21,1.35,53.489,M,-93.488,M,,*69
$GNGGA,101011.000,1003.345066,N,07621.270180,E,1,21,1.35,53.489,M,-93.488,M,,*68
$GNGGA,101012.000,1003.345066,N,07621.270180,E,1,21,1.35,53.489,M,-93.488,M,,*6B
$GNGGA,101013.000,1003.345066,N,07621.270180,E,1,21,1.35,53.489,M,-93.488,M,,*6A
$GNGGA,101014.000,1003.345066,N,07621.270180,E,1,21,1.35,53.489,M,-93.488,M,,*6D
$GNGGA,101015.000,1003.345066,N,07621.270180,E,1,21,1.35,53.489,M,-93.488,M,,*6C
$GNGGA,101016.000,1003.345066,N,07621.270180,E,1,21,1.35,53.489,M,-93.488,M,,*6F
$GNGGA,101017.000,1003.345066,N,07621.270180,E,1,21,1.35,53.489,M,-93.488,M,,*6E
$GNGGA,101018.000,1003.345066,N,07621.270180,E,1,21,1.35,53.489,M,-93.488,M,,*61
$GNGGA,101019.000,1003.345066,N,07621.270180,E,1,21,1.35,53.489,M,-93.488,M,,*60
$GNGGA,101020.000,1003.345066,N,07621.270180,E,1,21,1.35,53.489,M,-93.488,M,,*6A
$GNGGA,101021.000,1003.345066,N,07621.270180,E,1,21,1.35,53.489,M,-93.488,M,,*6B
$GNGGA,101022.000,1003.345066,N,07621.270180,E,1,21,1.35,53.489,M,-93.488,M,,*68
$GNGGA,101023.000,1003.345066,N,07621.270180,E,1,21,1.35,53.489,M,-93.488,M,,*69
$GNGGA,101024.000,1003.345066,N,07621.270180,E,1,21,1.35,53.489,M,-93.488,M,,*6E
$GNGGA,101025.000,1003.345066,N,07621.270180,E,1,21,1.35,53.489,M,-93.488,M,,*6F
$GNGGA,101026.000,1003.345066,N,07621.270180,E,1,21,1.35,53.489,M,-93.488,M,,*6C
$GNGGA,101027.000,1003.345066,N,07621.270180,E,1,21,1.35,53.489,M,-93.488,M,,*6D
$GNGGA,101028.000,1003.345066,N,07621.270180,E,1,21,1.35,53.489,M,-93.488,M,,*62
$GNGGA,101029.000,1003.345066,N,07621.270180,E,1,21,1.35,53.489,M,-93.488,M,,*63
$GNGGA,101030.000,1003.345066,N,07621.270180,E,1,21,1.35,53.489,M,-93.488,M,,*6B
$GNGGA,101031.000,1003.345066,N,07621.270180,E,1,21,1.35,53.489,M,-93.488,M,,*6A
$GNGGA,101032.000,1003.345066,N,07621.270180,E,1,21,1.35,53.489,M,-93.488,M,,*69
$GNGGA,101033.000,1003.345066,N,07621.270180,E,1,21,1.35,53.489,M,-93.488,M,,*68
$GNGGA,101034.000,1003.345066,N,07621.270180,E,1,21,1.35,53.489,M,-93.488,M,,*6F
$GNGGA,101035.000,1003.345066,N,07621.270180,E,1,21,1.35,53.489,M,-93.488,M,,*6E
$GNGGA,101036.000,1003.345066,N,07621.270180,E,1,21,1.35,53.489,M,-93.488,M,,*6D
$GNGGA,101037.000,1003.345066,N,07621.270180,E,1,21,1.35,53.489,M,-93.488,M,,*6C
$GNGGA,101038.000,1003.345066,N,07621.270180,E,1,21,1.35,53.489,M,-93.488,M,,*63
$GNGGA,101039.000,1003.345066,N,07621.270180,E,1,21,1.35,53.489,M,-93.488,M,,*62
$GNGGA,101040.000,1003.345066,N,07621.270180,E,1,21,1.35,53.489,M,-93.488,M,,*6C
$GNGGA,101041.000,1003.345066,N,07621.270180,E,1,21,1.35,53.489,M,-93.488,M,,*6D
$GNGGA,101042.000,1003.345066,N,07621.270180,E,1,21,1.35,53.489,M,-93.488,M,,*6E
$GNGGA,101043.000,1003.345066,N,07621.270180,E,1,21,1.35,53.489,M,-93.488,M,,*6F
$GNGGA,101044.000,1003.345066,N,07621.270180,E,1,21,1.35,53.489,M,-93.488,M,,*68
$GNGGA,101045.000,1003.345066,N,07621.270180,E,1,21,1.35,53.489,M,-93.488,M,,*69
$GNGGA,101046.000,1003.345066,N,07621.270180,E,1,20,1.35,53.489,M,-93.488,M,,*6B
$GNGGA,101047.000,1003.345066,N,07621.270180,E,1,21,1.35,53.489,M,-93.488,M,,*6B
$GNGGA,101048.000,1003.345066,N,07621.270180,E,1,21,1.35,53.489,M,-93.488,M,,*64
$GNGGA,101049.000,1003.345066,N,07621.270180,E,1,21,1.35,53.489,M,-93.488,M,,*65
$GNGGA,101050.000,1003.345066,N,07621.270180,E,1,21,1.35,53.489,M,-93.488,M,,*6D
$GNGGA,101051.000,1003.345066,N,07621.270180,E,1,21,1.35,53.489,M,-93.488,M,,*6C
$GNGGA,101052.000,1003.345066,N,07621.270180,E,1,21,1.35,53.489,M,-93.488,M,,*6F
$GNGGA,101053.000,1003.345066,N,07621.270180,E,1,21,1.35,53.489,M,-93.488,M,,*6E
$GNGGA,101054.000,1003.345066,N,07621.270180,E,1,21,1.35,53.489,M,-93.488,M,,*69
$GNGGA,101055.000,1003.345066,N,07621.270180,E,1,21,1.35,53.489,M,-93.488,M,,*68
$GNGGA,101056.000,1003.345066,N,07621.270180,E,1,21,1.35,53.489,M,-93.488,M,,*6B
$GNGGA,101057.000,1003.345066,N,07621.270180,E,1,21,1.35,53.489,M,-93.488,M,,*6A
$GNGGA,101058.000,1003.345066,N,07621.270180,E,1,21,1.35,53.489,M,-93.488,M,,*65
$GNGGA,101059.000,1003.345066,N,07621.270180,E,1,21,1.35,53.489,M,-93.488,M,,*64
$GNGGA,101100.000,1003.345066,N,07621.270180,E,1,21,1.35,53.489,M,-93.488,M,,*69
$GNGGA,101101.000,1003.345066,N,07621.270180,E,1,21,1.35,53.489,M,-93.488,M,,*68
$GNGGA,101102.000,1003.345066,N,07621.270180,E,1,21,1.35,53.489,M,-93.488,M,,*6B
$GNGGA,101103.000,1003.345066,N,07621.270180,E,1,21,1.35,53.489,M,-93.488,M,,*6A
$GNGGA,101104.000,1003.345066,N,07621.270180,E,1,22,1.35,53.489,M,-93.488,M,,*6E
$GNGGA,101105.000,1003.345066,N,07621.270180,E,1,22,1.35,53.489,M,-93.488,M,,*6F
$GNGGA,101106.000,1003.345066,N,07621.270180,E,1,22,1.35,53.489,M,-93.488,M,,*6C
$GNGGA,101107.000,1003.345066,N,07621.270180,E,1,22,1.35,53.489,M,-93.488,M,,*6D
$GNGGA,101108.000,1003.345066,N,07621.270180,E,1,22,1.35,53.489,M,-93.488,M,,*62
$GNGGA,101109.000,1003.345066,N,07621.270180,E,1,22,1.35,53.489,M,-93.488,M,,*63
$GNGGA,101110.000,1003.345066,N,07621.270180,E,1,21,1.35,53.489,M,-93.488,M,,*68
$GNGGA,101111.000,1003.345066,N,07621.270180,E,1,21,1.35,53.489,M,-93.488,M,,*69
$GNGGA,101112.000,1003.345066,N,07621.270180,E,1,21,1.35,53.489,M,-93.488,M,,*6A
$GNGGA,101113.000,1003.345066,N,07621.270180,E,1,21,1.35,53.489,M,-93.488,M,,*6B
$GNGGA,101114.000,1003.345066,N,07621.270180,E,1,21,1.35,53.489,M,-93.488,M,,*6C
$GNGGA,101115.000,1003.345066,N,07621.270180,E,1,21,1.35,53.489,M,-93.488,M,,*6D
$GNGGA,101116.000,1003.345066,N,07621.270180,E,1,21,1.35,53.489,M,-93.488,M,,*6E
$GNGGA,101117.000,1003.345066,N,07621.270180,E,1,21,1.35,53.489,M,-93.488,M,,*6F
$GNGGA,101118.000,1003.345066,N,07621.270180,E,1,21,1.35,53.489,M,-93.488,M,,*60
$GNGGA,101119.000,1003.345066,N,07621.270180,E,1,21,1.35,53.489,M,-93.488,M,,*61
$GNGGA,101120.000,1003.345066,N,07621.270180,E,1,21,1.35,53.489,M,-93.488,M,,*6B
$GNGGA,101121.000,1003.345066,N,07621.270180,E,1,21,1.35,53.489,M,-93.488,M,,*6A
$GNGGA,101122.000,1003.345066,N,07621.270180,E,1,21,1.35,53.489,M,-93.488,M,,*69
$GNGGA,101123.000,1003.345066,N,07621.270180,E,1,21,1.35,53.489,M,-93.488,M,,*68
$GNGGA,101124.000,1003.345066,N,07621.270180,E,1,21,1.35,53.489,M,-93.488,M,,*6F
$GNGGA,101125.000,1003.345066,N,07621.270180,E,1,21,1.35,53.489,M,-93.488,M,,*6E
$GNGGA,101126.000,1003.345066,N,07621.270180,E,1,21,1.35,53.489,M,-93.488,M,,*6D
$GNGGA,101127.000,1003.345066,N,07621.270180,E,1,21,1.35,53.489,M,-93.488,M,,*6C
$GNGGA,101128.000,1003.345066,N,07621.270180,E,1,21,1.35,53.489,M,-93.488,M,,*63
$GNGGA,101129.000,1003.345066,N,07621.270180,E,1,21,1.35,53.489,M,-93.488,M,,*62
$GNGGA,101130.000,1003.345066,N,07621.270180,E,1,21,1.35,53.489,M,-93.488,M,,*6A
$GNGGA,101131.000,1003.345066,N,07621.270180,E,1,21,1.35,53.489,M,-93.488,M,,*6B
$GNGGA,101132.000,1003.345066,N,07621.270180,E,1,21,1.35,53.489,M,-93.488,M,,*68
$GNGGA,101133.000,1003.345066,N,07621.270180,E,1,21,1.35,53.489,M,-93.488,M,,*69
$GNGGA,101134.000,1003.345066,N,07621.270180,E,1,21,1.35,53.489,M,-93.488,M,,*6E
$GNGGA,101135.000,1003.345066,N,07621.270180,E,1,22,1.35,53.489,M,-93.488,M,,*6C
$GNGGA,101136.000,1003.345066,N,07621.270180,E,1,22,1.35,53.489,M,-93.488,M,,*6F
$GNGGA,101137.000,1003.345066,N,07621.270180,E,1,22,1.35,53.489,M,-93.488,M,,*6E
$GNGGA,101138.000,1003.345066,N,07621.270180,E,1,22,1.35,53.489,M,-93.488,M,,*61
$GNGGA,101139.000,1003.345066,N,07621.270180,E,1,21,1.35,53.489,M,-93.488,M,,*63
$GNGGA,101140.000,1003.345066,N,07621.270180,E,1,21,1.35,53.489,M,-93.488,M,,*6D
$GNGGA,101141.000,1003.345066,N,07621.270180,E,1,21,1.35,53.489,M,-93.488,M,,*6C
$GNGGA,101142.000,1003.345066,N,07621.270180,E,1,21,1.35,53.489,M,-93.488,M,,*6F
$GNGGA,101143.000,1003.345066,N,07621.270180,E,1,21,1.35,53.489,M,-93.488,M,,*6E
$GNGGA,101144.000,1003.345066,N,07621.270180,E,1,21,1.35,53.489,M,-93.488,M,,*69
$GNGGA,101145.000,1003.345066,N,07621.270180,E,1,21,1.35,53.489,M,-93.488,M,,*68
$GNGGA,101146.000,1003.345066,N,07621.270180,E,1,22,1.35,53.489,M,-93.488,M,,*68
$GNGGA,101147.000,1003.345066,N,07621.270180,E,1,22,1.35,53.489,M,-93.488,M,,*69
$GNGGA,101148.000,1003.345066,N,07621.270180,E,1,22,1.35,53.489,M,-93.488,M,,*66
$GNGGA,101149.000,1003.345066,N,07621.270180,E,1,22,1.35,53.489,M,-93.488,M,,*67
$GNGGA,101150.000,1003.345066,N,07621.270180,E,1,22,1.35,53.489,M,-93.488,M,,*6F
$GNGGA,101151.000,1003.345066,N,07621.270180,E,1,22,1.35,53.489,M,-93.488,M,,*6E
$GNGGA,101152.000,1003.345066,N,07621.270180,E,1,22,1.35,53.489,M,-93.488,M,,*6D
$GNGGA,101153.000,1003.345066,N,07621.270180,E,1,22,1.35,53.489,M,-93.488,M,,*6C
$GNGGA,101154.000,1003.345066,N,07621.270180,E,1,22,1.35,53.489,M,-93.488,M,,*6B
$GNGGA,101155.000,1003.345066,N,07621.270180,E,1,22,1.35,53.489,M,-93.488,M,,*6A
$GNGGA,101156.000,1003.345066,N,07621.270180,E,1,22,1.35,53.489,M,-93.488,M,,*69
$GNGGA,101157.000,1003.345066,N,07621.270180,E,1,22,1.35,53.489,M,-93.488,M,,*68
$GNGGA,101158.000,1003.345066,N,07621.270180,E,1,22,1.35,53.489,M,-93.488,M,,*67
$GNGGA,101159.000,1003.345066,N,07621.270180,E,1,22,1.35,53.489,M,-93.488,M,,*66
$GNGGA,101200.000,1003.345066,N,07621.270180,E,1,22,1.35,53.489,M,-93.488,M,,*69
$GNGGA,101201.000,1003.345066,N,07621.270180,E,1,22,1.35,53.489,M,-93.488,M,,*68
$GNGGA,101202.000,1003.345066,N,07621.270180,E,1,22,1.35,53.489,M,-93.488,M,,*6B
$GNGGA,101203.000,1003.345066,N,07621.270180,E,1,22,1.35,53.489,M,-93.488,M,,*6A
$GNGGA,101204.000,1003.345066,N,07621.270180,E,1,22,1.35,53.489,M,-93.488,M,,*6D
$GNGGA,101205.000,1003.345066,N,07621.270180,E,1,22,1.35,53.489,M,-93.488,M,,*6C
$GNGGA,101206.000,1003.345066,N,07621.270180,E,1,22,1.35,53.489,M,-93.488,M,,*6F
$GNGGA,101207.000,1003.345066,N,07621.270180,E,1,22,1.35,53.489,M,-93.488,M,,*6E
$GNGGA,101208.000,1003.345066,N,07621.270180,E,1,22,1.35,53.489,M,-93.488,M,,*61
$GNGGA,101209.000,1003.345066,N,07621.270180,E,1,22,1.35,53.489,M,-93.488,M,,*60
$GNGGA,101210.000,1003.345066,N,07621.270180,E,1,22,1.35,53.489,M,-93.488,M,,*68
