$GNGGA,070633.000,1003.582924,N,07621.704490,E,2,24,0.59,10.882,M,-93.493,M,,*6E
$GNGGA,070634.000,1003.582924,N,07621.704490,E,2,24,0.59,10.882,M,-93.493,M,,*69
$GNGGA,070635.000,1003.582924,N,07621.704490,E,2,24,0.59,10.882,M,-93.493,M,,*68
$GNGGA,070636.000,1003.582924,N,07621.704490,E,2,24,0.59,10.882,M,-93.493,M,,*6B
$GNGGA,070637.000,1003.582924,N,07621.704490,E,2,24,0.59,10.882,M,-93.493,M,,*6A
$GNGGA,070638.000,1003.582924,N,07621.704490,E,2,24,0.59,10.882,M,-93.493,M,,*65
$GNGGA,070639.000,1003.582924,N,07621.704490,E,2,24,0.59,10.882,M,-93.493,M,,*64
$GNGGA,070640.000,1003.582924,N,07621.704490,E,2,24,0.59,10.882,M,-93.493,M,,*6A
$GNGGA,070641.000,1003.582924,N,07621.704490,E,2,24,0.59,10.882,M,-93.493,M,,*6B
$GNGGA,070642.000,1003.582924,N,07621.704490,E,2,24,0.59,10.882,M,-93.493,M,,*68
$GNGGA,070643.000,1003.582924,N,07621.704490,E,2,24,0.59,10.882,M,-93.493,M,,*69
$GNGGA,070644.000,1003.582924,N,07621.704490,E,2,24,0.59,10.882,M,-93.493,M,,*6E
$GNGGA,070645.000,1003.582924,N,07621.704490,E,2,25,0.57,10.882,M,-93.493,M,,*60
$GNGGA,070646.000,1003.582924,N,07621.704490,E,2,25,0.57,10.882,M,-93.493,M,,*63
$GNGGA,070647.000,1003.582924,N,07621.704490,E,2,25,0.57,10.882,M,-93.493,M,,*62
$GNGGA,070648.000,1003.582924,N,07621.704490,E,2,25,0.57,10.882,M,-93.493,M,,*6D
$GNGGA,070649.000,1003.582924,N,07621.704490,E,2,25,0.57,10.882,M,-93.493,M,,*6C
$GNGGA,070650.000,1003.582924,N,07621.704490,E,2,25,0.57,10.882,M,-93.493,M,,*64
$GNGGA,070651.000,1003.582924,N,07621.704490,E,2,25,0.57,10.882,M,-93.493,M,,*65
$GNGGA,070652.000,1003.582924,N,07621.704490,E,2,25,0.57,10.882,M,-93.493,M,,*66
$GNGGA,070653.000,1003.582924,N,07621.704490,E,2,25,0.57,10.882,M,-93.493,M,,*67
$GNGGA,070654.000,1003.582924,N,07621.704490,E,2,25,0.57,10.882,M,-93.493,M,,*60
$GNGGA,070655.000,1003.582924,N,07621.704490,E,2,25,0.57,10.882,M,-93.493,M,,*61
$GNGGA,070656.000,1003.582924,N,07621.704490,E,2,25,0.57,10.882,M,-93.493,M,,*62
$GNGGA,070657.000,1003.582924,N,07621.704490,E,2,25,0.57,10.882,M,-93.493,M,,*63
$GNGGA,070658.000,1003.582924,N,07621.704490,E,2,24,0.59,10.882,M,-93.493,M,,*63
$GNGGA,070659.000,1003.582924,N,07621.704490,E,2,24,0.59,10.882,M,-93.493,M,,*62
$GNGGA,070700.000,1003.582870,N,07621.702918,E,2,23,0.62,11.118,M,-93.493,M,,*60
$GNGGA,070701.000,1003.582162,N,07621.702342,E,2,24,0.59,11.201,M,-93.493,M,,*6A
$GNGGA,070702.000,1003.581052,N,07621.701508,E,2,24,0.59,11.271,M,-93.493,M,,*64
$GNGGA,070703.000,1003.579390,N,07621.700476,E,2,25,0.58,11.336,M,-93.493,M,,*64
$GNGGA,070704.000,1003.577458,N,07621.699600,E,2,25,0.58,11.350,M,-93.493,M,,*6C
$GNGGA,070705.000,1003.575232,N,07621.698766,E,2,24,0.59,11.501,M,-93.493,M,,*67
$GNGGA,070706.000,1003.572898,N,07621.698010,E,2,25,0.58,11.801,M,-93.493,M,,*62
$GNGGA,070707.000,1003.570726,N,07621.697230,E,2,25,0.58,12.028,M,-93.493,M,,*64
$GNGGA,070708.000,1003.568518,N,07621.696306,E,2,25,0.58,12.184,M,-93.493,M,,*6F
$GNGGA,070709.000,1003.565962,N,07621.695190,E,2,25,0.58,12.435,M,-93.493,M,,*63
$GNGGA,070710.000,1003.563148,N,07621.693912,E,2,25,0.58,12.581,M,-93.493,M,,*67
$GNGGA,070711.000,1003.560496,N,07621.692616,E,2,25,0.58,12.743,M,-93.493,M,,*65
$GNGGA,070712.000,1003.558012,N,07621.691290,E,2,25,0.58,12.921,M,-93.493,M,,*66
$GNGGA,070713.000,1003.555492,N,07621.689880,E,2,25,0.58,13.309,M,-93.493,M,,*65
$GNGGA,070714.000,1003.552864,N,07621.688320,E,2,25,0.58,13.639,M,-93.493,M,,*66
$GNGGA,070715.000,1003.549966,N,07621.686604,E,2,25,0.58,14.268,M,-93.493,M,,*64
$GNGGA,070716.000,1003.546888,N,07621.684852,E,2,25,0.57,14.624,M,-93.493,M,,*65
$GNGGA,070717.000,1003.543414,N,07621.683136,E,2,25,0.58,14.877,M,-93.493,M,,*63
$GNGGA,070718.000,1003.539496,N,07621.681486,E,2,24,0.59,15.201,M,-93.493,M,,*6D
$GNGGA,070719.000,1003.535632,N,07621.679902,E,2,24,0.59,15.506,M,-93.493,M,,*6A
$GNGGA,070720.000,1003.531984,N,07621.678396,E,2,25,0.58,15.743,M,-93.493,M,,*63
$GNGGA,070721.000,1003.528492,N,07621.676980,E,2,25,0.57,15.899,M,-93.493,M,,*64
$GNGGA,070722.000,1003.524886,N,07621.675546,E,2,25,0.58,15.980,M,-93.493,M,,*61
$GNGGA,070723.000,1003.521004,N,07621.673926,E,2,25,0.58,16.281,M,-93.493,M,,*62
$GNGGA,070724.000,1003.516900,N,07621.672144,E,2,25,0.58,16.761,M,-93.492,M,,*6B
$GNGGA,070725.000,1003.512808,N,07621.670164,E,2,25,0.58,16.964,M,-93.493,M,,*6D
$GNGGA,070726.000,1003.509010,N,07621.667920,E,2,24,0.61,17.445,M,-93.493,M,,*6F
$GNGGA,070727.000,1003.505512,N,07621.665268,E,2,24,0.61,17.627,M,-93.493,M,,*66
$GNGGA,070728.000,1003.502260,N,07621.662292,E,2,24,0.61,17.855,M,-93.492,M,,*64
$GNGGA,070729.000,1003.499140,N,07621.659124,E,2,24,0.61,18.229,M,-93.493,M,,*6E
$GNGGA,070730.000,1003.495822,N,07621.655938,E,2,24,0.61,18.529,M,-93.492,M,,*68
$GNGGA,070731.000,1003.492270,N,07621.652920,E,2,24,0.61,18.783,M,-93.493,M,,*6E
$GNGGA,070732.000,1003.488724,N,07621.649866,E,2,24,0.61,19.113,M,-93.492,M,,*64
$GNGGA,070733.000,1003.484872,N,07621.646572,E,2,24,0.61,18.782,M,-93.493,M,,*6C
$GNGGA,070734.000,1003.481026,N,07621.643152,E,2,24,0.61,18.300,M,-93.493,M,,*6A
$GNGGA,070735.000,1003.477360,N,07621.639828,E,2,24,0.61,18.265,M,-93.492,M,,*69
$GNGGA,070736.000,1003.474078,N,07621.636774,E,2,24,0.61,17.827,M,-93.493,M,,*68
$GNGGA,070737.000,1003.471234,N,07621.634110,E,2,24,0.61,17.634,M,-93.492,M,,*6D
$GNGGA,070738.000,1003.468690,N,07621.632082,E,2,24,0.61,17.482,M,-93.492,M,,*63
$GNGGA,070739.000,1003.466488,N,07621.630792,E,2,24,0.61,17.173,M,-93.492,M,,*68
$GNGGA,070740.000,1003.464892,N,07621.629778,E,2,24,0.61,16.712,M,-93.492,M,,*6F
$GNGGA,070741.000,1003.463812,N,07621.628764,E,2,24,0.61,16.493,M,-93.492,M,,*67
$GNGGA,070742.000,1003.463260,N,07621.628164,E,2,24,0.61,16.127,M,-93.492,M,,*67
$GNGGA,070743.000,1003.463188,N,07621.628050,E,2,24,0.60,15.673,M,-93.492,M,,*61
$GNGGA,070744.000,1003.463104,N,07621.627990,E,2,24,0.60,15.013,M,-93.493,M,,*69
$GNGGA,070745.000,1003.463038,N,07621.627888,E,2,24,0.60,14.656,M,-93.492,M,,*69
$GNGGA,070746.000,1003.463038,N,07621.627888,E,2,24,0.60,14.656,M,-93.492,M,,*6A
$GNGGA,070747.000,1003.463038,N,07621.627888,E,2,24,0.60,14.656,M,-93.492,M,,*6B
$GNGGA,070748.000,1003.463038,N,07621.627888,E,2,24,0.60,14.656,M,-93.492,M,,*64
$GNGGA,070749.000,1003.463038,N,07621.627888,E,2,24,0.60,14.656,M,-93.492,M,,*65
$GNGGA,070750.000,1003.463038,N,07621.627888,E,2,24,0.60,14.656,M,-93.492,M,,*6D
$GNGGA,070751.000,1003.463038,N,07621.627888,E,2,24,0.60,14.656,M,-93.492,M,,*6C
$GNGGA,070752.000,1003.463038,N,07621.627888,E,2,24,0.60,14.656,M,-93.492,M,,*6F
$GNGGA,070753.000,1003.463038,N,07621.627888,E,2,24,0.60,14.656,M,-93.492,M,,*6E
$GNGGA,070754.000,1003.463038,N,07621.627888,E,2,24,0.60,14.656,M,-93.492,M,,*69
$GNGGA,070755.000,1003.463038,N,07621.627888,E,2,24,0.60,14.656,M,-93.492,M,,*68
$GNGGA,070756.000,1003.463038,N,07621.627888,E,2,24,0.60,14.656,M,-93.492,M,,*6B
$GNGGA,070757.000,1003.463038,N,07621.627888,E,2,24,0.60,14.656,M,-93.492,M,,*6A
$GNGGA,070758.000,1003.463038,N,07621.627888,E,2,24,0.60,14.656,M,-93.492,M,,*65
$GNGGA,070759.000,1003.463038,N,07621.627888,E,2,24,0.60,14.656,M,-93.492,M,,*64
$GNGGA,070800.000,1003.463038,N,07621.627888,E,2,24,0.60,14.656,M,-93.492,M,,*67
$GNGGA,070801.000,1003.463038,N,07621.627888,E,2,24,0.60,14.656,M,-93.492,M,,*66
$GNGGA,070802.000,1003.462270,N,07621.626286,E,2,24,0.60,14.583,M,-93.493,M,,*65
$GNGGA,070803.000,1003.461508,N,07621.625182,E,2,24,0.60,14.583,M,-93.493,M,,*6B
$GNGGA,070804.000,1003.459852,N,07621.623304,E,2,25,0.58,14.597,M,-93.493,M,,*60
$GNGGA,070805.000,1003.457764,N,07621.621270,E,2,25,0.58,14.625,M,-93.492,M,,*6E
$GNGGA,070806.000,1003.455268,N,07621.619026,E,2,24,0.61,14.667,M,-93.492,M,,*61
$GNGGA,070807.000,1003.452328,N,07621.616506,E,2,24,0.61,14.710,M,-93.493,M,,*6A
$GNGGA,070808.000,1003.449022,N,07621.613656,E,2,24,0.61,14.806,M,-93.492,M,,*6C
$GNGGA,070809.000,1003.445404,N,07621.610344,E,2,24,0.61,14.876,M,-93.492,M,,*63
$GNGGA,070810.000,1003.441510,N,07621.606744,E,2,24,0.61,15.054,M,-93.493,M,,*60
$GNGGA,070811.000,1003.437538,N,07621.603174,E,2,24,0.61,15.435,M,-93.493,M,,*69
$GNGGA,070812.000,1003.433458,N,07621.599718,E,2,24,0.61,15.721,M,-93.492,M,,*62
$GNGGA,070813.000,1003.429240,N,07621.596220,E,2,24,0.61,15.939,M,-93.492,M,,*61
$GNGGA,070814.000,1003.424920,N,07621.592566,E,2,24,0.60,16.412,M,-93.492,M,,*61
$GNGGA,070815.000,1003.420534,N,07621.588732,E,2,24,0.61,16.855,M,-93.492,M,,*6B
$GNGGA,070816.000,1003.416010,N,07621.584730,E,2,24,0.61,17.439,M,-93.492,M,,*67
$GNGGA,070817.000,1003.411372,N,07621.580566,E,2,23,0.62,18.055,M,-93.492,M,,*66
$GNGGA,070818.000,1003.406548,N,07621.576366,E,2,24,0.59,18.828,M,-93.492,M,,*62
$GNGGA,070819.000,1003.401610,N,07621.572142,E,2,24,0.59,19.412,M,-93.492,M,,*6E
$GNGGA,070820.000,1003.396696,N,07621.567906,E,2,23,0.62,20.123,M,-93.492,M,,*6D
$GNGGA,070821.000,1003.391980,N,07621.563760,E,2,23,0.62,20.475,M,-93.492,M,,*6F
$GNGGA,070822.000,1003.387630,N,07621.559434,E,2,23,0.62,21.101,M,-93.492,M,,*63
$GNGGA,070823.000,1003.383868,N,07621.554754,E,2,23,0.62,21.741,M,-93.491,M,,*6C
$GNGGA,070824.000,1003.381000,N,07621.549678,E,2,23,0.62,22.516,M,-93.492,M,,*6C
$GNGGA,070825.000,1003.379248,N,07621.544512,E,2,24,0.61,23.155,M,-93.492,M,,*60
$GNGGA,070826.000,1003.378510,N,07621.539298,E,2,24,0.61,23.709,M,-93.492,M,,*68
$GNGGA,070827.000,1003.378234,N,07621.533994,E,2,24,0.61,24.388,M,-93.492,M,,*6F
$GNGGA,070828.000,1003.378174,N,07621.528450,E,2,24,0.61,24.898,M,-93.492,M,,*62
$GNGGA,070829.000,1003.378324,N,07621.522654,E,2,23,0.62,25.935,M,-93.491,M,,*68
$GNGGA,070830.000,1003.378558,N,07621.516774,E,2,24,0.60,26.769,M,-93.491,M,,*68
$GNGGA,070831.000,1003.378678,N,07621.510798,E,2,24,0.61,27.738,M,-93.491,M,,*68
$GNGGA,070832.000,1003.378660,N,07621.504678,E,2,24,0.61,28.692,M,-93.491,M,,*66
$GNGGA,070833.000,1003.378564,N,07621.498600,E,2,24,0.61,29.895,M,-93.491,M,,*63
$GNGGA,070834.000,1003.378180,N,07621.492552,E,2,24,0.61,30.538,M,-93.491,M,,*66
$GNGGA,070835.000,1003.377670,N,07621.486474,E,2,24,0.61,31.146,M,-93.491,M,,*6C
$GNGGA,070836.000,1003.377106,N,07621.480282,E,2,24,0.61,31.504,M,-93.491,M,,*62
$GNGGA,070837.000,1003.376374,N,07621.473922,E,2,23,0.62,31.770,M,-93.490,M,,*6C
$GNGGA,070838.000,1003.375576,N,07621.467304,E,2,23,0.62,32.055,M,-93.490,M,,*6C
$GNGGA,070839.000,1003.374814,N,07621.460506,E,2,24,0.59,32.408,M,-93.490,M,,*65
$GNGGA,070840.000,1003.374046,N,07621.453594,E,2,24,0.59,32.912,M,-93.491,M,,*68
$GNGGA,070841.000,1003.373278,N,07621.446670,E,2,23,0.62,33.588,M,-93.490,M,,*6C
$GNGGA,070842.000,1003.372492,N,07621.439860,E,2,23,0.62,34.049,M,-93.490,M,,*64
$GNGGA,070843.000,1003.371862,N,07621.433230,E,2,24,0.59,34.691,M,-93.490,M,,*6C
$GNGGA,070844.000,1003.371364,N,07621.426846,E,2,23,0.62,35.225,M,-93.490,M,,*6C
$GNGGA,070845.000,1003.370848,N,07621.420804,E,2,24,0.61,35.951,M,-93.490,M,,*65
$GNGGA,070846.000,1003.370350,N,07621.414954,E,2,23,0.62,36.463,M,-93.490,M,,*6C
$GNGGA,070847.000,1003.369756,N,07621.409284,E,2,24,0.61,37.415,M,-93.490,M,,*69
$GNGGA,070848.000,1003.368772,N,07621.403884,E,2,24,0.61,38.257,M,-93.490,M,,*6E
$GNGGA,070849.000,1003.367338,N,07621.398976,E,2,24,0.60,39.134,M,-93.490,M,,*65
$GNGGA,070850.000,1003.365124,N,07621.394380,E,2,24,0.61,39.622,M,-93.489,M,,*66
$GNGGA,070851.000,1003.362172,N,07621.390246,E,2,24,0.61,39.824,M,-93.490,M,,*6C
$GNGGA,070852.000,1003.358632,N,07621.386394,E,2,24,0.61,39.804,M,-93.490,M,,*6E
$GNGGA,070853.000,1003.354780,N,07621.382506,E,2,25,0.58,39.938,M,-93.490,M,,*67
$GNGGA,070854.000,1003.350922,N,07621.378354,E,2,25,0.58,39.955,M,-93.490,M,,*6D
$GNGGA,070855.000,1003.347412,N,07621.373854,E,2,25,0.58,39.533,M,-93.490,M,,*68
$GNGGA,070856.000,1003.344262,N,07621.369030,E,2,25,0.57,39.691,M,-93.490,M,,*6C
$GNGGA,070857.000,1003.341268,N,07621.364086,E,2,25,0.58,39.250,M,-93.490,M,,*64
$GNGGA,070858.000,1003.338310,N,07621.359064,E,2,25,0.58,39.204,M,-93.489,M,,*60
$GNGGA,070859.000,1003.335244,N,07621.354090,E,2,24,0.61,38.558,M,-93.489,M,,*6E
$GNGGA,070900.000,1003.331734,N,07621.349002,E,2,24,0.61,38.112,M,-93.489,M,,*68
$GNGGA,070901.000,1003.327894,N,07621.344232,E,2,24,0.61,37.547,M,-93.489,M,,*6C
$GNGGA,070902.000,1003.324300,N,07621.340116,E,2,24,0.61,36.857,M,-93.489,M,,*66
$GNGGA,070903.000,1003.320676,N,07621.336444,E,2,24,0.61,36.250,M,-93.489,M,,*69
$GNGGA,070904.000,1003.317034,N,07621.332898,E,2,24,0.61,35.986,M,-93.490,M,,*68
$GNGGA,070905.000,1003.313644,N,07621.329550,E,2,24,0.61,35.923,M,-93.489,M,,*68
$GNGGA,070906.000,1003.310608,N,07621.326400,E,2,23,0.62,35.747,M,-93.490,M,,*6B
$GNGGA,070907.000,1003.307812,N,07621.323874,E,2,24,0.60,35.717,M,-93.489,M,,*6B
$GNGGA,070908.000,1003.305322,N,07621.321708,E,2,23,0.62,35.462,M,-93.489,M,,*6C
$GNGGA,070909.000,1003.303108,N,07621.319764,E,2,23,0.62,35.253,M,-93.490,M,,*6C
$GNGGA,070910.000,1003.301224,N,07621.318126,E,2,23,0.62,35.095,M,-93.489,M,,*6A
$GNGGA,070911.000,1003.299238,N,07621.316848,E,2,23,0.62,34.913,M,-93.489,M,,*6F
$GNGGA,070912.000,1003.296946,N,07621.315462,E,2,23,0.62,34.872,M,-93.489,M,,*60
$GNGGA,070913.000,1003.294312,N,07621.313716,E,2,23,0.62,34.552,M,-93.489,M,,*61
$GNGGA,070914.000,1003.291294,N,07621.311886,E,2,23,0.62,34.444,M,-93.489,M,,*6E
$GNGGA,070915.000,1003.287880,N,07621.310152,E,2,23,0.62,33.993,M,-93.489,M,,*66
$GNGGA,070916.000,1003.284178,N,07621.308472,E,2,23,0.62,33.505,M,-93.488,M,,*64
$GNGGA,070917.000,1003.280392,N,07621.306948,E,2,24,0.61,33.555,M,-93.489,M,,*6D
$GNGGA,070918.000,1003.276750,N,07621.305088,E,2,24,0.61,33.615,M,-93.489,M,,*60
$GNGGA,070919.000,1003.272976,N,07621.303318,E,2,24,0.60,33.664,M,-93.489,M,,*64
$GNGGA,070920.000,1003.269250,N,07621.301608,E,2,24,0.61,33.638,M,-93.489,M,,*65
$GNGGA,070921.000,1003.265374,N,07621.299658,E,2,24,0.60,33.546,M,-93.488,M,,*60
$GNGGA,070922.000,1003.261240,N,07621.297492,E,2,24,0.60,33.444,M,-93.488,M,,*68
$GNGGA,070923.000,1003.256914,N,07621.295374,E,2,24,0.60,33.263,M,-93.489,M,,*68
$GNGGA,070924.000,1003.252570,N,07621.293394,E,2,24,0.60,32.884,M,-93.488,M,,*6E
$GNGGA,070925.000,1003.248778,N,07621.291372,E,2,23,0.63,32.678,M,-93.489,M,,*6C
$GNGGA,070926.000,1003.245550,N,07621.289122,E,2,23,0.63,32.238,M,-93.489,M,,*64
$GNGGA,070927.000,1003.243378,N,07621.286542,E,2,23,0.63,31.952,M,-93.489,M,,*66
$GNGGA,070928.000,1003.242598,N,07621.283932,E,2,23,0.63,31.637,M,-93.489,M,,*62
$GNGGA,070929.000,1003.243042,N,07621.280998,E,2,24,0.60,31.195,M,-93.488,M,,*69
$GNGGA,070930.000,1003.244530,N,07621.277398,E,2,24,0.60,31.075,M,-93.489,M,,*6A
$GNGGA,070931.000,1003.246318,N,07621.273414,E,2,24,0.60,30.804,M,-93.488,M,,*6C
$GNGGA,070932.000,1003.248202,N,07621.269544,E,2,24,0.60,30.675,M,-93.489,M,,*6D
$GNGGA,070933.000,1003.250050,N,07621.265956,E,2,24,0.60,30.491,M,-93.489,M,,*6B
$GNGGA,070934.000,1003.251748,N,07621.262752,E,2,23,0.63,30.155,M,-93.489,M,,*67
$GNGGA,070935.000,1003.253176,N,07621.259716,E,2,23,0.63,29.811,M,-93.488,M,,*67
$GNGGA,070936.000,1003.254760,N,07621.256704,E,2,22,0.65,29.658,M,-93.488,M,,*6A
$GNGGA,070937.000,1003.256188,N,07621.253302,E,2,23,0.63,29.421,M,-93.489,M,,*64
$GNGGA,070938.000,1003.257658,N,07621.249498,E,2,23,0.63,29.052,M,-93.488,M,,*6E
$GNGGA,070939.000,1003.259104,N,07621.245442,E,2,22,0.65,28.729,M,-93.488,M,,*69
$GNGGA,070940.000,1003.260574,N,07621.241668,E,2,23,0.63,28.304,M,-93.488,M,,*6C
$GNGGA,070941.000,1003.262110,N,07621.238110,E,2,23,0.63,27.582,M,-93.488,M,,*68
$GNGGA,070942.000,1003.263112,N,07621.234774,E,2,22,0.65,27.181,M,-93.488,M,,*60
$GNGGA,070943.000,1003.263334,N,07621.231852,E,2,22,0.65,26.729,M,-93.488,M,,*6C
$GNGGA,070944.000,1003.262698,N,07621.229422,E,2,23,0.63,25.949,M,-93.488,M,,*67
$GNGGA,070945.000,1003.261024,N,07621.227328,E,2,23,0.63,25.319,M,-93.488,M,,*68
$GNGGA,070946.000,1003.258114,N,07621.225840,E,2,22,0.63,24.687,M,-93.488,M,,*66
$GNGGA,070947.000,1003.254430,N,07621.224190,E,2,23,0.63,23.764,M,-93.488,M,,*67
$GNGGA,070948.000,1003.250218,N,07621.222066,E,2,23,0.63,23.142,M,-93.488,M,,*6C
$GNGGA,070949.000,1003.245748,N,07621.219624,E,2,23,0.63,22.302,M,-93.488,M,,*66
$GNGGA,070950.000,1003.241464,N,07621.217002,E,2,23,0.63,21.771,M,-93.488,M,,*68
$GNGGA,070951.000,1003.237348,N,07621.214698,E,2,23,0.63,21.184,M,-93.488,M,,*6B
$GNGGA,070952.000,1003.233448,N,07621.212676,E,2,23,0.63,20.515,M,-93.488,M,,*60
$GNGGA,070953.000,1003.229992,N,07621.210828,E,2,24,0.61,19.981,M,-93.487,M,,*66
$GNGGA,070954.000,1003.227070,N,07621.209202,E,2,23,0.63,19.542,M,-93.488,M,,*69
$GNGGA,070955.000,1003.224574,N,07621.207744,E,2,24,0.61,19.461,M,-93.488,M,,*66
$GNGGA,070956.000,1003.222648,N,07621.206508,E,2,24,0.61,18.943,M,-93.488,M,,*68
$GNGGA,070957.000,1003.221634,N,07621.205782,E,2,24,0.61,18.485,M,-93.488,M,,*65
$GNGGA,070958.000,1003.221304,N,07621.205476,E,2,24,0.60,18.000,M,-93.488,M,,*6C
$GNGGA,070959.000,1003.221292,N,07621.205506,E,2,24,0.60,17.442,M,-93.488,M,,*68
$GNGGA,071000.000,1003.221298,N,07621.205362,E,2,22,0.64,18.354,M,-93.488,M,,*6F
$GNGGA,071001.000,1003.221298,N,07621.205386,E,2,21,0.67,18.803,M,-93.487,M,,*62
$GNGGA,071002.000,1003.221298,N,07621.205386,E,2,23,0.63,18.803,M,-93.487,M,,*67
$GNGGA,071003.000,1003.221298,N,07621.205386,E,2,21,0.67,18.803,M,-93.487,M,,*60
$GNGGA,071004.000,1003.221298,N,07621.205386,E,2,22,0.64,18.803,M,-93.487,M,,*67
$GNGGA,071005.000,1003.221298,N,07621.205386,E,2,22,0.64,18.803,M,-93.487,M,,*66
$GNGGA,071006.000,1003.221298,N,07621.205386,E,2,22,0.64,18.803,M,-93.487,M,,*65
$GNGGA,071007.000,1003.221298,N,07621.205386,E,2,22,0.64,18.803,M,-93.487,M,,*64
$GNGGA,071008.000,1003.220278,N,07621.204468,E,2,23,0.62,18.698,M,-93.487,M,,*69
$GNGGA,071009.000,1003.219486,N,07621.203904,E,2,24,0.60,18.711,M,-93.488,M,,*6F
$GNGGA,071010.000,1003.218304,N,07621.202998,E,2,24,0.60,18.732,M,-93.488,M,,*6E
$GNGGA,071011.000,1003.216492,N,07621.201492,E,2,24,0.61,18.758,M,-93.488,M,,*60
$GNGGA,071012.000,1003.214026,N,07621.199386,E,2,23,0.62,18.749,M,-93.488,M,,*6E
$GNGGA,071013.000,1003.211314,N,07621.196944,E,2,23,0.63,18.694,M,-93.488,M,,*63
$GNGGA,071014.000,1003.208842,N,07621.194370,E,2,24,0.61,18.599,M,-93.488,M,,*60
$GNGGA,071015.000,1003.206634,N,07621.191490,E,2,24,0.61,18.506,M,-93.488,M,,*6A
$GNGGA,071016.000,1003.204558,N,07621.188256,E,2,24,0.61,18.467,M,-93.488,M,,*60
$GNGGA,071017.000,1003.202590,N,07621.184956,E,2,24,0.61,18.365,M,-93.488,M,,*61
$GNGGA,071018.000,1003.200724,N,07621.181746,E,2,24,0.61,18.377,M,-93.488,M,,*68
$GNGGA,071019.000,1003.198708,N,07621.178320,E,2,23,0.63,18.410,M,-93.488,M,,*64
$GNGGA,071020.000,1003.196788,N,07621.174852,E,2,23,0.63,18.392,M,-93.488,M,,*67
$GNGGA,071021.000,1003.195030,N,07621.171102,E,2,23,0.63,18.416,M,-93.488,M,,*63
$GNGGA,071022.000,1003.193302,N,07621.167232,E,2,23,0.63,18.207,M,-93.488,M,,*65
$GNGGA,071023.000,1003.191472,N,07621.163056,E,2,23,0.63,18.191,M,-93.488,M,,*6E
$GNGGA,071024.000,1003.189678,N,07621.158838,E,2,23,0.63,18.264,M,-93.487,M,,*66
$GNGGA,071025.000,1003.188094,N,07621.154950,E,2,23,0.63,18.397,M,-93.487,M,,*6C
$GNGGA,071026.000,1003.186528,N,07621.150960,E,2,23,0.63,18.321,M,-93.487,M,,*69
$GNGGA,071027.000,1003.184896,N,07621.146796,E,2,23,0.63,18.663,M,-93.487,M,,*61
$GNGGA,071028.000,1003.183444,N,07621.142812,E,2,23,0.63,18.832,M,-93.488,M,,*68
$GNGGA,071029.000,1003.182088,N,07621.139050,E,2,23,0.63,18.741,M,-93.487,M,,*6A
$GNGGA,071030.000,1003.180660,N,07621.135084,E,2,24,0.61,18.161,M,-93.487,M,,*64
$GNGGA,071031.000,1003.179202,N,07621.130794,E,2,24,0.61,18.396,M,-93.487,M,,*6A
$GNGGA,071032.000,1003.177612,N,07621.126522,E,2,24,0.61,18.099,M,-93.487,M,,*66
$GNGGA,071033.000,1003.175932,N,07621.122214,E,2,25,0.58,17.703,M,-93.487,M,,*6E
$GNGGA,071034.000,1003.173916,N,07621.117612,E,2,24,0.61,17.317,M,-93.487,M,,*67
$GNGGA,071035.000,1003.171684,N,07621.113034,E,2,24,0.61,16.701,M,-93.487,M,,*64
$GNGGA,071036.000,1003.169446,N,07621.108486,E,2,24,0.61,16.302,M,-93.487,M,,*62
$GNGGA,071037.000,1003.167124,N,07621.103668,E,2,23,0.62,15.354,M,-93.486,M,,*60
$GNGGA,071038.000,1003.164712,N,07621.098352,E,2,24,0.61,14.688,M,-93.487,M,,*60
$GNGGA,071039.000,1003.162516,N,07621.093408,E,2,24,0.61,14.596,M,-93.487,M,,*6E
$GNGGA,071040.000,1003.160332,N,07621.089058,E,2,23,0.63,14.682,M,-93.487,M,,*6B
$GNGGA,071041.000,1003.158202,N,07621.084804,E,2,23,0.63,14.762,M,-93.487,M,,*60
$GNGGA,071042.000,1003.156198,N,07621.080340,E,2,23,0.63,14.283,M,-93.486,M,,*69
$GNGGA,071043.000,1003.154374,N,07621.075546,E,2,24,0.61,14.007,M,-93.486,M,,*6B
$GNGGA,071044.000,1003.152484,N,07621.070446,E,2,23,0.62,13.566,M,-93.486,M,,*67
$GNGGA,071045.000,1003.150606,N,07621.065250,E,2,24,0.61,13.152,M,-93.486,M,,*6E
$GNGGA,071046.000,1003.148896,N,07621.060120,E,2,24,0.61,13.211,M,-93.486,M,,*66
$GNGGA,071047.000,1003.147348,N,07621.054786,E,2,23,0.63,13.379,M,-93.486,M,,*67
$GNGGA,071048.000,1003.145854,N,07621.049500,E,2,24,0.60,13.299,M,-93.486,M,,*67
$GNGGA,071049.000,1003.144348,N,07621.044304,E,2,24,0.60,12.887,M,-93.486,M,,*6A
$GNGGA,071050.000,1003.142980,N,07621.039042,E,2,23,0.63,12.701,M,-93.486,M,,*64
$GNGGA,071051.000,1003.141612,N,07621.033714,E,2,23,0.63,12.276,M,-93.486,M,,*69
$GNGGA,071052.000,1003.140202,N,07621.028326,E,2,23,0.63,11.842,M,-93.486,M,,*6F
$GNGGA,071053.000,1003.138792,N,07621.022926,E,2,23,0.63,11.331,M,-93.486,M,,*62
$GNGGA,071054.000,1003.137382,N,07621.017532,E,2,23,0.63,11.054,M,-93.486,M,,*60
$GNGGA,071055.000,1003.136140,N,07621.012270,E,2,23,0.63,11.309,M,-93.486,M,,*63
$GNGGA,071056.000,1003.134946,N,07621.007206,E,2,23,0.63,11.132,M,-93.486,M,,*63
$GNGGA,071057.000,1003.133656,N,07621.002040,E,2,23,0.63,11.004,M,-93.486,M,,*6A
$GNGGA,071058.000,1003.132360,N,07620.996832,E,2,23,0.63,10.784,M,-93.486,M,,*62
$GNGGA,071059.000,1003.130740,N,07620.991390,E,2,23,0.63,10.722,M,-93.486,M,,*6F
$GNGGA,071100.000,1003.128952,N,07620.985738,E,2,23,0.63,10.841,M,-93.486,M,,*6F
$GNGGA,071101.000,1003.126930,N,07620.979942,E,2,24,0.61,11.026,M,-93.485,M,,*6A
$GNGGA,071102.000,1003.124866,N,07620.973882,E,2,24,0.61,11.505,M,-93.485,M,,*6A
$GNGGA,071103.000,1003.122832,N,07620.967504,E,2,24,0.61,11.680,M,-93.485,M,,*64
$GNGGA,071104.000,1003.120852,N,07620.960994,E,2,24,0.61,11.554,M,-93.485,M,,*6F
$GNGGA,071105.000,1003.118884,N,07620.954400,E,2,24,0.61,11.988,M,-93.485,M,,*64
$GNGGA,071106.000,1003.116988,N,07620.948094,E,2,24,0.61,11.788,M,-93.485,M,,*6E
$GNGGA,071107.000,1003.115176,N,07620.942070,E,2,24,0.61,11.833,M,-93.485,M,,*6A
$GNGGA,071108.000,1003.113256,N,07620.935902,E,2,25,0.57,12.235,M,-93.485,M,,*65
$GNGGA,071109.000,1003.111258,N,07620.929578,E,2,25,0.57,12.637,M,-93.485,M,,*62
$GNGGA,071110.000,1003.109056,N,07620.922900,E,2,26,0.57,21.057,M,-93.485,M,,*64
$GNGGA,071111.000,1003.108204,N,07620.917422,E,2,24,0.59,22.804,M,-93.484,M,,*6A
$GNGGA,071112.000,1003.104328,N,07620.911536,E,2,24,0.59,24.820,M,-93.485,M,,*69
$GNGGA,071113.000,1003.103014,N,07620.904216,E,2,26,0.57,25.955,M,-93.485,M,,*6C
$GNGGA,071114.000,1003.100890,N,07620.897652,E,2,27,0.55,26.009,M,-93.485,M,,*63
$GNGGA,071115.000,1003.098934,N,07620.892528,E,2,25,0.57,27.049,M,-93.485,M,,*63
$GNGGA,071116.000,1003.096150,N,07620.886546,E,2,25,0.60,25.244,M,-93.484,M,,*61
$GNGGA,071117.000,1003.093390,N,07620.880528,E,2,25,0.60,24.833,M,-93.484,M,,*6E
$GNGGA,071118.000,1003.090750,N,07620.873934,E,2,25,0.60,28.660,M,-93.485,M,,*62
$GNGGA,071119.000,1003.087516,N,07620.868804,E,2,25,0.60,28.597,M,-93.484,M,,*67
$GNGGA,071120.000,1003.083202,N,07620.861598,E,2,25,0.60,25.402,M,-93.484,M,,*6A
$GNGGA,071121.000,1003.079794,N,07620.855922,E,2,24,0.60,25.842,M,-93.484,M,,*67
$GNGGA,071122.000,1003.075396,N,07620.849532,E,2,24,0.60,27.218,M,-93.484,M,,*69
$GNGGA,071123.000,1003.071184,N,07620.842890,E,2,25,0.61,28.433,M,-93.484,M,,*63
$GNGGA,071124.000,1003.066780,N,07620.839296,E,2,24,0.60,25.656,M,-93.484,M,,*6C
$GNGGA,071125.000,1003.063312,N,07620.834616,E,2,24,0.60,26.130,M,-93.483,M,,*65
$GNGGA,071126.000,1003.060000,N,07620.830164,E,2,24,0.60,26.505,M,-93.484,M,,*66
$GNGGA,071127.000,1003.056142,N,07620.825040,E,2,24,0.60,25.959,M,-93.483,M,,*67
$GNGGA,071128.000,1003.052218,N,07620.819916,E,2,25,0.57,25.366,M,-93.483,M,,*66
$GNGGA,071129.000,1003.048264,N,07620.814810,E,2,25,0.57,24.253,M,-93.484,M,,*6C
$GNGGA,071130.000,1003.044538,N,07620.809866,E,2,25,0.57,23.544,M,-93.483,M,,*6A
$GNGGA,071131.000,1003.040782,N,07620.804952,E,2,25,0.57,22.849,M,-93.483,M,,*66
$GNGGA,071132.000,1003.037092,N,07620.800188,E,2,25,0.57,22.430,M,-93.484,M,,*6D
$GNGGA,071133.000,1003.034392,N,07620.796438,E,2,25,0.57,25.677,M,-93.483,M,,*63
$GNGGA,071134.000,1003.030762,N,07620.792520,E,2,25,0.57,20.743,M,-93.484,M,,*63
$GNGGA,071135.000,1003.027762,N,07620.787078,E,2,25,0.57,23.112,M,-93.484,M,,*69
$GNGGA,071136.000,1003.024186,N,07620.782500,E,2,25,0.57,23.261,M,-93.483,M,,*6A
$GNGGA,071137.000,1003.020778,N,07620.777898,E,2,25,0.57,23.383,M,-93.483,M,,*63
$GNGGA,071138.000,1003.017118,N,07620.773326,E,2,24,0.60,23.514,M,-93.483,M,,*6F
$GNGGA,071139.000,1003.013422,N,07620.768460,E,2,24,0.60,22.947,M,-93.483,M,,*62
$GNGGA,071140.000,1003.009672,N,07620.763534,E,2,24,0.60,22.335,M,-93.483,M,,*64
$GNGGA,071141.000,1003.005808,N,07620.758590,E,2,25,0.60,21.986,M,-93.483,M,,*6C
$GNGGA,071142.000,1003.003366,N,07620.752614,E,2,23,0.62,33.903,M,-93.483,M,,*65
$GNGGA,071143.000,1002.999844,N,07620.748804,E,2,24,0.60,35.939,M,-93.483,M,,*6A
$GNGGA,071144.000,1002.995722,N,07620.744466,E,2,24,0.60,33.189,M,-93.483,M,,*6F
$GNGGA,071145.000,1002.991234,N,07620.740308,E,2,25,0.57,32.539,M,-93.483,M,,*68
$GNGGA,071146.000,1002.987592,N,07620.735754,E,2,25,0.57,31.875,M,-93.483,M,,*6E
$GNGGA,071147.000,1002.984376,N,07620.731560,E,2,25,0.57,34.247,M,-93.483,M,,*6F
$GNGGA,071148.000,1002.980884,N,07620.727726,E,2,26,0.55,33.780,M,-93.483,M,,*6D
$GNGGA,071149.000,1002.978130,N,07620.723826,E,2,25,0.57,36.228,M,-93.483,M,,*65
$GNGGA,071150.000,1002.975376,N,07620.720016,E,2,25,0.57,36.451,M,-93.482,M,,*61
$GNGGA,071151.000,1002.972790,N,07620.716032,E,2,25,0.57,35.818,M,-93.483,M,,*6B
$GNGGA,071152.000,1002.970486,N,07620.711940,E,2,26,0.57,35.071,M,-93.482,M,,*60
$GNGGA,071153.000,1002.968254,N,07620.709102,E,2,26,0.55,33.165,M,-93.482,M,,*66
$GNGGA,071154.000,1002.967018,N,07620.705994,E,2,26,0.55,39.685,M,-93.483,M,,*6D
$GNGGA,071155.000,1002.965086,N,07620.702142,E,2,26,0.57,38.895,M,-93.482,M,,*60
$GNGGA,071156.000,1002.964342,N,07620.695680,E,2,26,0.57,40.408,M,-93.482,M,,*68
$GNGGA,071157.000,1002.963070,N,07620.691450,E,2,26,0.57,38.586,M,-93.482,M,,*6F
$GNGGA,071158.000,1002.962932,N,07620.686194,E,2,26,0.57,37.118,M,-93.483,M,,*68
$GNGGA,071159.000,1002.962110,N,07620.681670,E,2,25,0.61,36.524,M,-93.482,M,,*66
$GNGGA,071200.000,1002.961018,N,07620.676798,E,2,25,0.57,37.559,M,-93.482,M,,*62
$GNGGA,071201.000,1002.960274,N,07620.672478,E,2,26,0.57,37.008,M,-93.482,M,,*61
$GNGGA,071202.000,1002.958960,N,07620.668758,E,2,26,0.55,27.841,M,-93.482,M,,*6B
$GNGGA,071203.000,1002.957694,N,07620.664750,E,2,25,0.57,25.409,M,-93.482,M,,*66
$GNGGA,071204.000,1002.956368,N,07620.658216,E,2,25,0.57,31.022,M,-93.482,M,,*66
$GNGGA,071205.000,1002.957550,N,07620.652498,E,2,25,0.57,37.438,M,-93.482,M,,*68
$GNGGA,071206.000,1002.957484,N,07620.647272,E,2,25,0.57,32.904,M,-93.481,M,,*61
$GNGGA,071207.000,1002.955798,N,07620.643162,E,2,25,0.57,28.432,M,-93.481,M,,*69
$GNGGA,071208.000,1002.956200,N,07620.636214,E,2,25,0.57,34.507,M,-93.482,M,,*68
$GNGGA,071209.000,1002.955654,N,07620.631078,E,2,25,0.57,39.139,M,-93.481,M,,*67
$GNGGA,071210.000,1002.955744,N,07620.628210,E,2,25,0.57,32.204,M,-93.481,M,,*6D
$GNGGA,071211.000,1002.954880,N,07620.623554,E,2,25,0.57,33.438,M,-93.481,M,,*6E
$GNGGA,071212.000,1002.955306,N,07620.618088,E,2,26,0.55,31.615,M,-93.481,M,,*6B
$GNGGA,071213.000,1002.955678,N,07620.613840,E,2,26,0.55,29.671,M,-93.481,M,,*6A
$GNGGA,071214.000,1002.955366,N,07620.605368,E,2,26,0.55,34.796,M,-93.481,M,,*65
$GNGGA,071215.000,1002.955636,N,07620.600154,E,2,26,0.55,32.991,M,-93.481,M,,*63
$GNGGA,071216.000,1002.955234,N,07620.595054,E,2,26,0.55,31.055,M,-93.481,M,,*6A
$GNGGA,071217.000,1002.954868,N,07620.590044,E,2,26,0.55,29.397,M,-93.482,M,,*6A
$GNGGA,071218.000,1002.955594,N,07620.585748,E,2,26,0.55,30.386,M,-93.481,M,,*6E
$GNGGA,071219.000,1002.955258,N,07620.582070,E,2,26,0.55,28.628,M,-93.481,M,,*6B
$GNGGA,071220.000,1002.955570,N,07620.578410,E,2,26,0.55,25.701,M,-93.481,M,,*6C
$GNGGA,071221.000,1002.954868,N,07620.575356,E,2,26,0.55,21.590,M,-93.481,M,,*6E
$GNGGA,071222.000,1002.954610,N,07620.574756,E,2,26,0.55,25.329,M,-93.480,M,,*68
$GNGGA,071223.000,1002.954574,N,07620.573850,E,2,26,0.55,28.320,M,-93.480,M,,*62
$GNGGA,071224.000,1002.954130,N,07620.571330,E,2,26,0.55,28.771,M,-93.481,M,,*6F
$GNGGA,071225.000,1002.953488,N,07620.569362,E,2,26,0.55,33.954,M,-93.481,M,,*62
$GNGGA,071226.000,1002.953644,N,07620.569182,E,2,26,0.55,31.639,M,-93.481,M,,*69
$GNGGA,071227.000,1002.953446,N,07620.568930,E,2,26,0.55,35.203,M,-93.481,M,,*61
$GNGGA,071228.000,1002.953446,N,07620.568930,E,2,26,0.55,35.203,M,-93.481,M,,*6E
$GNGGA,071229.000,1002.953446,N,07620.568930,E,2,26,0.55,35.203,M,-93.481,M,,*6F
$GNGGA,071230.000,1002.953446,N,07620.568930,E,2,26,0.55,35.203,M,-93.481,M,,*67
$GNGGA,071231.000,1002.953446,N,07620.568930,E,2,26,0.55,35.203,M,-93.481,M,,*66
$GNGGA,071232.000,1002.953446,N,07620.568930,E,2,26,0.55,35.203,M,-93.481,M,,*65
$GNGGA,071233.000,1002.953446,N,07620.568930,E,2,26,0.55,35.203,M,-93.481,M,,*64
$GNGGA,071234.000,1002.953446,N,07620.568930,E,2,26,0.55,35.203,M,-93.481,M,,*63
$GNGGA,071235.000,1002.953446,N,07620.568930,E,2,26,0.55,35.203,M,-93.481,M,,*62
$GNGGA,071236.000,1002.953446,N,07620.568930,E,2,26,0.55,35.203,M,-93.481,M,,*61
$GNGGA,071237.000,1002.953446,N,07620.568930,E,2,26,0.55,35.203,M,-93.481,M,,*60
$GNGGA,071238.000,1002.953446,N,07620.568930,E,2,26,0.55,35.203,M,-93.481,M,,*6F
$GNGGA,071239.000,1002.953446,N,07620.568930,E,2,26,0.55,35.203,M,-93.481,M,,*6E
$GNGGA,071240.000,1002.953446,N,07620.568930,E,2,26,0.55,35.203,M,-93.481,M,,*60
$GNGGA,071241.000,1002.953446,N,07620.568930,E,2,26,0.55,35.203,M,-93.481,M,,*61
$GNGGA,071242.000,1002.953446,N,07620.568930,E,2,26,0.55,35.203,M,-93.481,M,,*62
$GNGGA,071243.000,1002.953446,N,07620.568930,E,2,26,0.55,35.203,M,-93.481,M,,*63
$GNGGA,071244.000,1002.953446,N,07620.568930,E,2,26,0.55,35.203,M,-93.481,M,,*64
$GNGGA,071245.000,1002.953446,N,07620.568930,E,2,27,0.55,35.203,M,-93.481,M,,*64
$GNGGA,071246.000,1002.953446,N,07620.568930,E,2,27,0.55,35.203,M,-93.481,M,,*67
$GNGGA,071247.000,1002.953446,N,07620.568930,E,2,27,0.55,35.203,M,-93.481,M,,*66
$GNGGA,071248.000,1002.953446,N,07620.568930,E,2,27,0.55,35.203,M,-93.481,M,,*69
$GNGGA,071249.000,1002.953446,N,07620.568930,E,2,27,0.55,35.203,M,-93.481,M,,*68
$GNGGA,071250.000,1002.953446,N,07620.568930,E,2,27,0.55,35.203,M,-93.481,M,,*60
$GNGGA,071251.000,1002.953446,N,07620.568930,E,2,27,0.55,35.203,M,-93.481,M,,*61
$GNGGA,071252.000,1002.953446,N,07620.568930,E,2,27,0.55,35.203,M,-93.481,M,,*62
$GNGGA,071253.000,1002.953710,N,07620.570544,E,2,27,0.55,27.510,M,-93.480,M,,*62
$GNGGA,071254.000,1002.953446,N,07620.568672,E,2,27,0.55,25.002,M,-93.481,M,,*6F
$GNGGA,071255.000,1002.953926,N,07620.566572,E,2,27,0.55,23.477,M,-93.481,M,,*68
$GNGGA,071256.000,1002.953932,N,07620.563296,E,2,27,0.55,25.593,M,-93.481,M,,*6B
$GNGGA,071257.000,1002.954190,N,07620.560116,E,2,27,0.55,23.174,M,-93.481,M,,*6E
$GNGGA,071258.000,1002.954034,N,07620.556984,E,2,26,0.57,21.884,M,-93.481,M,,*6F
$GNGGA,071259.000,1002.954154,N,07620.551542,E,2,26,0.57,21.164,M,-93.480,M,,*6E
$GNGGA,071300.000,1002.954760,N,07620.546772,E,2,27,0.55,22.667,M,-93.481,M,,*60
$GNGGA,071301.000,1002.953860,N,07620.540610,E,2,26,0.57,23.029,M,-93.480,M,,*65
$GNGGA,071302.000,1002.951394,N,07620.535936,E,2,25,0.57,18.950,M,-93.481,M,,*60
$GNGGA,071303.000,1002.950752,N,07620.529846,E,2,25,0.57,17.667,M,-93.481,M,,*61
$GNGGA,071304.000,1002.950134,N,07620.523510,E,2,25,0.57,16.677,M,-93.480,M,,*65
$GNGGA,071305.000,1002.949348,N,07620.516970,E,2,25,0.57,15.640,M,-93.480,M,,*6E
$GNGGA,071306.000,1002.948820,N,07620.510334,E,2,25,0.57,14.549,M,-93.480,M,,*6E
$GNGGA,071307.000,1002.948334,N,07620.503992,E,2,23,0.61,13.411,M,-93.480,M,,*6D
$GNGGA,071308.000,1002.947980,N,07620.497890,E,2,22,0.66,12.530,M,-93.480,M,,*62
$GNGGA,071309.000,1002.947464,N,07620.491770,E,2,22,0.66,11.771,M,-93.480,M,,*67
$GNGGA,071310.000,1002.946816,N,07620.485716,E,2,22,0.66,10.954,M,-93.480,M,,*6A
$GNGGA,071311.000,1002.946066,N,07620.479926,E,2,23,0.62,10.088,M,-93.480,M,,*67
$GNGGA,071312.000,1002.945364,N,07620.474196,E,2,23,0.62,9.451,M,-93.479,M,,*56
$GNGGA,071313.000,1002.944926,N,07620.468898,E,2,21,0.66,8.715,M,-93.480,M,,*52
$GNGGA,071314.000,1002.944332,N,07620.463648,E,2,22,0.66,8.223,M,-93.479,M,,*57
$GNGGA,071315.000,1002.943912,N,07620.458638,E,2,22,0.66,7.842,M,-93.480,M,,*52
$GNGGA,071316.000,1002.943078,N,07620.453322,E,2,22,0.66,7.229,M,-93.480,M,,*56
$GNGGA,071317.000,1002.942712,N,07620.448360,E,2,22,0.66,6.473,M,-93.479,M,,*5F
$GNGGA,071318.000,1002.942334,N,07620.443254,E,2,22,0.64,6.144,M,-93.479,M,,*5E
$GNGGA,071319.000,1002.942346,N,07620.437110,E,2,22,0.64,4.832,M,-93.479,M,,*50
$GNGGA,071320.000,1002.941866,N,07620.431056,E,2,23,0.62,3.967,M,-93.480,M,,*52
$GNGGA,071321.000,1002.941734,N,07620.424972,E,2,23,0.62,3.861,M,-93.479,M,,*51
$GNGGA,071322.000,1002.940924,N,07620.418588,E,2,23,0.62,3.807,M,-93.479,M,,*5A
$GNGGA,071323.000,1002.939988,N,07620.411694,E,2,24,0.59,3.409,M,-93.479,M,,*59
$GNGGA,071324.000,1002.939124,N,07620.404956,E,2,24,0.59,2.769,M,-93.479,M,,*51
$GNGGA,071325.000,1002.939040,N,07620.397966,E,2,23,0.65,2.382,M,-93.479,M,,*54
$GNGGA,071326.000,1002.938830,N,07620.391030,E,2,22,0.69,2.270,M,-93.479,M,,*54
$GNGGA,071327.000,1002.938410,N,07620.383908,E,2,23,0.65,1.737,M,-93.479,M,,*52
$GNGGA,071328.000,1002.938386,N,07620.376618,E,2,23,0.66,1.456,M,-93.479,M,,*56
$GNGGA,071329.000,1002.938098,N,07620.369532,E,2,23,0.65,0.894,M,-93.479,M,,*5E
$GNGGA,071330.000,1002.937996,N,07620.362290,E,2,23,0.66,0.251,M,-93.478,M,,*5B
$GNGGA,071331.000,1002.938008,N,07620.354958,E,2,23,0.63,-0.151,M,-93.478,M,,*7A
$GNGGA,071332.000,1002.937972,N,07620.348196,E,2,22,0.67,-0.550,M,-93.478,M,,*75
$GNGGA,071333.000,1002.937132,N,07620.341116,E,2,22,0.67,-0.712,M,-93.479,M,,*7C
$GNGGA,071334.000,1002.936454,N,07620.333958,E,2,22,0.67,-0.977,M,-93.478,M,,*74
$GNGGA,071335.000,1002.936112,N,07620.327382,E,2,23,0.65,-1.184,M,-93.478,M,,*7C
$GNGGA,071336.000,1002.935740,N,07620.320590,E,2,23,0.65,-1.196,M,-93.478,M,,*7C
$GNGGA,071337.000,1002.935134,N,07620.313438,E,2,23,0.65,-1.526,M,-93.478,M,,*74
$GNGGA,071338.000,1002.934498,N,07620.306616,E,2,24,0.60,-1.657,M,-93.478,M,,*74
$GNGGA,071339.000,1002.934120,N,07620.300334,E,2,22,0.65,-1.801,M,-93.478,M,,*7E
$GNGGA,071340.000,1002.934930,N,07620.293842,E,2,22,0.65,-1.948,M,-93.477,M,,*7B
$GNGGA,071341.000,1002.936532,N,07620.287464,E,2,22,0.65,-2.014,M,-93.477,M,,*78
$GNGGA,071342.000,1002.938386,N,07620.281254,E,2,23,0.60,-2.133,M,-93.477,M,,*7F
$GNGGA,071343.000,1002.940630,N,07620.274786,E,2,24,0.60,-2.356,M,-93.477,M,,*7F
$GNGGA,071344.000,1002.943510,N,07620.267784,E,2,24,0.59,-2.568,M,-93.477,M,,*7B
$GNGGA,071345.000,1002.947008,N,07620.261046,E,2,24,0.59,-2.289,M,-93.478,M,,*7A
$GNGGA,071346.000,1002.951172,N,07620.254260,E,2,25,0.59,-2.795,M,-93.477,M,,*74
$GNGGA,071347.000,1002.955594,N,07620.247738,E,2,24,0.59,-2.906,M,-93.477,M,,*72
$GNGGA,071348.000,1002.960130,N,07620.241318,E,2,24,0.59,-2.307,M,-93.477,M,,*7A
$GNGGA,071349.000,1002.964618,N,07620.234796,E,2,24,0.59,-1.761,M,-93.476,M,,*74
$GNGGA,071350.000,1002.969532,N,07620.228364,E,2,24,0.59,-1.048,M,-93.477,M,,*73
$GNGGA,071351.000,1002.974068,N,07620.221746,E,2,24,0.59,-0.281,M,-93.477,M,,*7F
$GNGGA,071352.000,1002.978700,N,07620.215080,E,2,24,0.59,1.483,M,-93.476,M,,*5A
$GNGGA,071353.000,1002.983608,N,07620.208402,E,2,24,0.59,3.051,M,-93.477,M,,*5C
$GNGGA,071354.000,1002.988630,N,07620.201478,E,2,24,0.59,5.148,M,-93.477,M,,*50
$GNGGA,071355.000,1002.993532,N,07620.194548,E,2,25,0.57,6.485,M,-93.476,M,,*5E
$GNGGA,071356.000,1002.998440,N,07620.187894,E,2,26,0.57,7.598,M,-93.476,M,,*53
$GNGGA,071357.000,1003.003210,N,07620.181366,E,2,26,0.57,9.123,M,-93.477,M,,*50
$GNGGA,071358.000,1003.007842,N,07620.175012,E,2,26,0.57,10.311,M,-93.477,M,,*66
$GNGGA,071359.000,1003.012456,N,07620.168814,E,2,26,0.57,11.048,M,-93.476,M,,*67
$GNGGA,071400.000,1003.017196,N,07620.162796,E,2,26,0.57,11.792,M,-93.476,M,,*6F
$GNGGA,071401.000,1003.021654,N,07620.156844,E,2,25,0.57,12.639,M,-93.476,M,,*65
$GNGGA,071402.000,1003.025662,N,07620.151438,E,2,26,0.55,12.666,M,-93.476,M,,*6C
$GNGGA,071403.000,1003.029334,N,07620.146698,E,2,26,0.55,12.680,M,-93.475,M,,*62
$GNGGA,071404.000,1003.032370,N,07620.142684,E,2,26,0.55,12.553,M,-93.476,M,,*68
$GNGGA,071405.000,1003.034884,N,07620.139204,E,2,25,0.57,12.475,M,-93.476,M,,*6B
$GNGGA,071406.000,1003.037194,N,07620.136144,E,2,26,0.55,12.444,M,-93.475,M,,*6B
$GNGGA,071407.000,1003.039348,N,07620.133192,E,2,26,0.55,12.299,M,-93.476,M,,*6C
$GNGGA,071408.000,1003.041526,N,07620.130270,E,2,25,0.57,12.372,M,-93.475,M,,*68
$GNGGA,071409.000,1003.043710,N,07620.127720,E,2,25,0.57,12.460,M,-93.476,M,,*6D
$GNGGA,071410.000,1003.045546,N,07620.125440,E,2,25,0.57,12.708,M,-93.476,M,,*68
$GNGGA,071411.000,1003.047256,N,07620.123232,E,2,25,0.57,13.143,M,-93.475,M,,*63
$GNGGA,071412.000,1003.049062,N,07620.120928,E,2,25,0.57,13.627,M,-93.475,M,,*6D
$GNGGA,071413.000,1003.050880,N,07620.118486,E,2,25,0.57,14.070,M,-93.475,M,,*61
$GNGGA,071414.000,1003.052878,N,07620.115930,E,2,25,0.57,14.763,M,-93.476,M,,*68
$GNGGA,071415.000,1003.054918,N,07620.113398,E,2,25,0.57,15.015,M,-93.475,M,,*62
$GNGGA,071416.000,1003.056976,N,07620.110830,E,2,25,0.57,15.269,M,-93.476,M,,*6B
$GNGGA,071417.000,1003.059076,N,07620.108238,E,2,25,0.57,15.579,M,-93.476,M,,*61
$GNGGA,071418.000,1003.061236,N,07620.105616,E,2,25,0.57,15.851,M,-93.476,M,,*61
$GNGGA,071419.000,1003.063564,N,07620.102832,E,2,25,0.57,16.127,M,-93.475,M,,*65
$GNGGA,071420.000,1003.066060,N,07620.099760,E,2,25,0.57,15.731,M,-93.475,M,,*62
$GNGGA,071421.000,1003.068814,N,07620.096280,E,2,26,0.55,15.798,M,-93.475,M,,*60
$GNGGA,071422.000,1003.071856,N,07620.092764,E,2,25,0.57,16.132,M,-93.475,M,,*62
$GNGGA,071423.000,1003.074826,N,07620.089230,E,2,25,0.57,16.075,M,-93.475,M,,*6D
$GNGGA,071424.000,1003.077874,N,07620.085498,E,2,26,0.57,16.299,M,-93.475,M,,*65
$GNGGA,071425.000,1003.080982,N,07620.081538,E,2,26,0.57,16.116,M,-93.475,M,,*6F
$GNGGA,071426.000,1003.084078,N,07620.077374,E,2,26,0.57,15.865,M,-93.475,M,,*6D
$GNGGA,071427.000,1003.087198,N,07620.073060,E,2,26,0.57,15.967,M,-93.474,M,,*60
$GNGGA,071428.000,1003.090192,N,07620.068842,E,2,25,0.59,15.974,M,-93.474,M,,*6E
$GNGGA,071429.000,1003.092838,N,07620.064984,E,2,25,0.57,15.741,M,-93.475,M,,*64
$GNGGA,071430.000,1003.095052,N,07620.061624,E,2,26,0.55,15.645,M,-93.475,M,,*6B
$GNGGA,071431.000,1003.096966,N,07620.058774,E,2,26,0.55,15.484,M,-93.474,M,,*67
$GNGGA,071432.000,1003.098484,N,07620.056476,E,2,27,0.55,15.287,M,-93.475,M,,*61
$GNGGA,071433.000,1003.099444,N,07620.054904,E,2,27,0.55,14.935,M,-93.474,M,,*65
$GNGGA,071434.000,1003.099822,N,07620.054070,E,2,26,0.57,14.812,M,-93.475,M,,*62
$GNGGA,071435.000,1003.099780,N,07620.053896,E,2,26,0.57,14.637,M,-93.474,M,,*6B
$GNGGA,071436.000,1003.099810,N,07620.053764,E,2,26,0.57,15.491,M,-93.474,M,,*63
$GNGGA,071437.000,1003.099840,N,07620.053740,E,2,25,0.57,16.005,M,-93.474,M,,*68
$GNGGA,071438.000,1003.099840,N,07620.053740,E,2,25,0.57,16.005,M,-93.474,M,,*67
$GNGGA,071439.000,1003.099840,N,07620.053740,E,2,25,0.57,16.005,M,-93.474,M,,*66
$GNGGA,071440.000,1003.099840,N,07620.053740,E,2,25,0.57,16.005,M,-93.474,M,,*68
$GNGGA,071441.000,1003.099840,N,07620.053740,E,2,25,0.57,16.005,M,-93.474,M,,*69
$GNGGA,071442.000,1003.099840,N,07620.053740,E,2,25,0.57,16.005,M,-93.474,M,,*6A
$GNGGA,071443.000,1003.099840,N,07620.053740,E,2,25,0.57,16.005,M,-93.474,M,,*6B
$GNGGA,071444.000,1003.100806,N,07620.052690,E,2,25,0.57,15.756,M,-93.474,M,,*60
$GNGGA,071445.000,1003.101874,N,07620.051538,E,2,25,0.57,15.784,M,-93.475,M,,*69
$GNGGA,071446.000,1003.103536,N,07620.049480,E,2,25,0.57,15.796,M,-93.475,M,,*6B
$GNGGA,071447.000,1003.105426,N,07620.047020,E,2,25,0.57,15.785,M,-93.474,M,,*6F
$GNGGA,071448.000,1003.107364,N,07620.044302,E,2,25,0.57,15.778,M,-93.475,M,,*60
$GNGGA,071449.000,1003.109662,N,07620.041206,E,2,25,0.57,15.828,M,-93.475,M,,*66
$GNGGA,071450.000,1003.112302,N,07620.037528,E,2,25,0.57,15.789,M,-93.474,M,,*68
$GNGGA,071451.000,1003.115176,N,07620.033370,E,2,25,0.57,15.756,M,-93.474,M,,*62
$GNGGA,071452.000,1003.118218,N,07620.028918,E,2,25,0.57,15.763,M,-93.475,M,,*6E
$GNGGA,071453.000,1003.121230,N,07620.024178,E,2,25,0.57,15.750,M,-93.474,M,,*6C
$GNGGA,071454.000,1003.124122,N,07620.019228,E,2,25,0.57,15.724,M,-93.474,M,,*65
$GNGGA,071455.000,1003.126978,N,07620.013978,E,2,25,0.57,15.563,M,-93.474,M,,*64
$GNGGA,071456.000,1003.129972,N,07620.008536,E,2,25,0.57,15.495,M,-93.474,M,,*66
$GNGGA,071457.000,1003.132960,N,07620.002968,E,2,25,0.57,15.341,M,-93.474,M,,*6D
$GNGGA,071458.000,1003.135984,N,07619.997196,E,2,25,0.57,15.114,M,-93.474,M,,*6B
$GNGGA,071459.000,1003.139008,N,07619.991238,E,2,25,0.57,14.872,M,-93.474,M,,*62
$GNGGA,071500.000,1003.142026,N,07619.985088,E,2,25,0.57,14.617,M,-93.474,M,,*6E
$GNGGA,071501.000,1003.145128,N,07619.978680,E,2,26,0.55,14.440,M,-93.474,M,,*6A
$GNGGA,071502.000,1003.148236,N,07619.972218,E,2,26,0.55,14.191,M,-93.474,M,,*6E
$GNGGA,071503.000,1003.151320,N,07619.965786,E,2,26,0.55,13.793,M,-93.474,M,,*66
$GNGGA,071504.000,1003.154332,N,07619.959474,E,2,27,0.55,13.535,M,-93.473,M,,*6E
$GNGGA,071505.000,1003.157314,N,07619.953276,E,2,27,0.55,13.447,M,-93.474,M,,*65
$GNGGA,071506.000,1003.160062,N,07619.947222,E,2,26,0.57,13.143,M,-93.474,M,,*66
$GNGGA,071507.000,1003.162948,N,07619.941384,E,2,27,0.55,13.024,M,-93.473,M,,*6B
$GNGGA,071508.000,1003.165678,N,07619.935786,E,2,27,0.55,13.035,M,-93.473,M,,*6A
$GNGGA,071509.000,1003.168270,N,07619.930374,E,2,26,0.55,12.975,M,-93.473,M,,*6B
$GNGGA,071510.000,1003.170760,N,07619.925256,E,2,27,0.55,13.036,M,-93.473,M,,*65
$GNGGA,071511.000,1003.172938,N,07619.920582,E,2,28,0.53,12.849,M,-93.473,M,,*66
$GNGGA,071512.000,1003.174906,N,07619.916346,E,2,28,0.53,12.678,M,-93.473,M,,*69
$GNGGA,071513.000,1003.176610,N,07619.912686,E,2,28,0.53,12.610,M,-93.473,M,,*61
$GNGGA,071514.000,1003.177846,N,07619.909686,E,2,28,0.53,12.565,M,-93.472,M,,*60
$GNGGA,071515.000,1003.178656,N,07619.907364,E,2,28,0.52,12.522,M,-93.472,M,,*64
$GNGGA,071516.000,1003.179190,N,07619.905876,E,2,28,0.52,12.433,M,-93.473,M,,*61
$GNGGA,071517.000,1003.179460,N,07619.905246,E,2,29,0.52,12.534,M,-93.472,M,,*65
$GNGGA,071518.000,1003.179526,N,07619.905204,E,2,29,0.52,12.720,M,-93.473,M,,*69
$GNGGA,071519.000,1003.179658,N,07619.905186,E,2,29,0.52,13.113,M,-93.473,M,,*6C
$GNGGA,071520.000,1003.179736,N,07619.905186,E,2,29,0.52,13.339,M,-93.473,M,,*65
$GNGGA,071521.000,1003.179736,N,07619.905186,E,2,29,0.52,13.339,M,-93.473,M,,*64
$GNGGA,071522.000,1003.179736,N,07619.905186,E,2,28,0.52,13.339,M,-93.473,M,,*66
$GNGGA,071523.000,1003.179736,N,07619.905186,E,2,28,0.52,13.339,M,-93.473,M,,*67
$GNGGA,071524.000,1003.179736,N,07619.905186,E,2,29,0.52,13.339,M,-93.473,M,,*61
$GNGGA,071525.000,1003.179736,N,07619.905186,E,2,29,0.52,13.339,M,-93.473,M,,*60
$GNGGA,071526.000,1003.180312,N,07619.903896,E,2,29,0.52,13.155,M,-93.473,M,,*61
$GNGGA,071527.000,1003.181008,N,07619.902762,E,2,29,0.52,13.138,M,-93.473,M,,*67
$GNGGA,071528.000,1003.182130,N,07619.900992,E,2,29,0.52,13.161,M,-93.473,M,,*6E
$GNGGA,071529.000,1003.183510,N,07619.898676,E,2,28,0.52,13.216,M,-93.472,M,,*6E
$GNGGA,071530.000,1003.185172,N,07619.895676,E,2,27,0.54,13.175,M,-93.473,M,,*63
$GNGGA,071531.000,1003.187122,N,07619.891962,E,2,28,0.54,13.190,M,-93.473,M,,*6F
$GNGGA,071532.000,1003.189408,N,07619.887816,E,2,28,0.54,13.239,M,-93.472,M,,*6B
$GNGGA,071533.000,1003.191868,N,07619.883226,E,2,28,0.54,13.303,M,-93.473,M,,*6D
$GNGGA,071534.000,1003.194448,N,07619.878150,E,2,28,0.54,13.280,M,-93.472,M,,*6C
$GNGGA,071535.000,1003.197112,N,07619.872636,E,2,28,0.54,13.435,M,-93.472,M,,*61
$GNGGA,071536.000,1003.199914,N,07619.866654,E,2,27,0.54,13.717,M,-93.472,M,,*6F
$GNGGA,071537.000,1003.202752,N,07619.860516,E,2,28,0.54,13.705,M,-93.472,M,,*6C
$GNGGA,071538.000,1003.205734,N,07619.854288,E,2,28,0.54,13.696,M,-93.473,M,,*69
$GNGGA,071539.000,1003.208662,N,07619.847982,E,2,28,0.54,13.872,M,-93.472,M,,*61
$GNGGA,071540.000,1003.211248,N,07619.841424,E,2,28,0.54,14.091,M,-93.472,M,,*6E
$GNGGA,071541.000,1003.213426,N,07619.834776,E,2,28,0.54,14.158,M,-93.472,M,,*61
$GNGGA,071542.000,1003.215298,N,07619.827912,E,2,27,0.54,14.522,M,-93.472,M,,*6F
$GNGGA,071543.000,1003.216918,N,07619.820892,E,2,27,0.54,14.640,M,-93.471,M,,*64
$GNGGA,071544.000,1003.218406,N,07619.813728,E,2,28,0.54,14.798,M,-93.472,M,,*69
$GNGGA,071545.000,1003.219774,N,07619.806384,E,2,28,0.54,14.816,M,-93.472,M,,*60
$GNGGA,071546.000,1003.220986,N,07619.799196,E,2,28,0.54,15.180,M,-93.472,M,,*65
$GNGGA,071547.000,1003.222138,N,07619.792086,E,2,28,0.54,15.707,M,-93.471,M,,*6A
$GNGGA,071548.000,1003.223200,N,07619.784760,E,2,28,0.54,15.910,M,-93.471,M,,*6C
$GNGGA,071549.000,1003.224244,N,07619.777098,E,2,28,0.54,15.919,M,-93.472,M,,*6C
$GNGGA,071550.000,1003.225294,N,07619.769256,E,2,28,0.54,16.447,M,-93.471,M,,*61
$GNGGA,071551.000,1003.226386,N,07619.761390,E,2,28,0.55,16.757,M,-93.471,M,,*61
$GNGGA,071552.000,1003.227454,N,07619.753758,E,2,28,0.55,17.047,M,-93.471,M,,*6D
$GNGGA,071553.000,1003.228594,N,07619.746288,E,2,29,0.52,17.357,M,-93.471,M,,*66
$GNGGA,071554.000,1003.229866,N,07619.738680,E,2,29,0.52,17.773,M,-93.471,M,,*67
$GNGGA,071555.000,1003.231204,N,07619.730952,E,2,29,0.52,18.555,M,-93.471,M,,*60
$GNGGA,071556.000,1003.232482,N,07619.723254,E,2,28,0.53,19.124,M,-93.470,M,,*65
$GNGGA,071557.000,1003.233742,N,07619.715574,E,2,28,0.53,19.622,M,-93.471,M,,*6A
$GNGGA,071558.000,1003.235056,N,07619.707840,E,2,28,0.53,19.789,M,-93.470,M,,*69
$GNGGA,071559.000,1003.236184,N,07619.700064,E,2,27,0.53,20.213,M,-93.470,M,,*6F
$GNGGA,071600.000,1003.237018,N,07619.692468,E,2,27,0.55,20.327,M,-93.470,M,,*67
$GNGGA,071601.000,1003.237780,N,07619.685052,E,2,27,0.55,20.360,M,-93.470,M,,*68
$GNGGA,071602.000,1003.238662,N,07619.677690,E,2,27,0.55,20.473,M,-93.470,M,,*69
$GNGGA,071603.000,1003.239652,N,07619.670442,E,2,27,0.55,20.464,M,-93.470,M,,*66
$GNGGA,071604.000,1003.240702,N,07619.663296,E,2,28,0.55,20.406,M,-93.470,M,,*6D
$GNGGA,071605.000,1003.241680,N,07619.656066,E,2,26,0.56,20.208,M,-93.469,M,,*60
$GNGGA,071606.000,1003.242544,N,07619.648668,E,2,26,0.56,19.819,M,-93.470,M,,*64
$GNGGA,071607.000,1003.243384,N,07619.641078,E,2,28,0.55,19.593,M,-93.470,M,,*62
$GNGGA,071608.000,1003.244140,N,07619.633662,E,2,28,0.55,19.329,M,-93.470,M,,*6F
$GNGGA,071609.000,1003.244866,N,07619.626744,E,2,28,0.55,19.270,M,-93.469,M,,*67
$GNGGA,071610.000,1003.245664,N,07619.620252,E,2,28,0.55,19.003,M,-93.470,M,,*68
$GNGGA,071611.000,1003.246486,N,07619.614306,E,2,28,0.55,18.890,M,-93.470,M,,*60
$GNGGA,071612.000,1003.247338,N,07619.608804,E,2,27,0.56,18.549,M,-93.469,M,,*69
$GNGGA,071613.000,1003.248220,N,07619.603674,E,2,27,0.56,18.494,M,-93.469,M,,*6C
$GNGGA,071614.000,1003.249174,N,07619.599042,E,2,27,0.56,18.547,M,-93.469,M,,*64
$GNGGA,071615.000,1003.249960,N,07619.594998,E,2,27,0.56,18.285,M,-93.469,M,,*62
$GNGGA,071616.000,1003.250440,N,07619.591806,E,2,27,0.56,18.197,M,-93.469,M,,*65
$GNGGA,071617.000,1003.250794,N,07619.589820,E,2,27,0.56,18.033,M,-93.469,M,,*6C
$GNGGA,071618.000,1003.251004,N,07619.588992,E,2,27,0.56,18.190,M,-93.469,M,,*6D
$GNGGA,071619.000,1003.251064,N,07619.588812,E,2,27,0.56,18.081,M,-93.469,M,,*62
$GNGGA,071620.000,1003.251070,N,07619.588806,E,2,27,0.56,18.290,M,-93.469,M,,*6A
$GNGGA,071621.000,1003.251088,N,07619.588752,E,2,27,0.56,18.347,M,-93.469,M,,*69
$GNGGA,071622.000,1003.251088,N,07619.588752,E,2,27,0.56,18.347,M,-93.469,M,,*6A
$GNGGA,071623.000,1003.251088,N,07619.588752,E,2,27,0.56,18.347,M,-93.469,M,,*6B
$GNGGA,071624.000,1003.251088,N,07619.588752,E,2,27,0.56,18.347,M,-93.469,M,,*6C
$GNGGA,071625.000,1003.251406,N,07619.587756,E,2,27,0.56,18.314,M,-93.469,M,,*62
$GNGGA,071626.000,1003.251880,N,07619.586460,E,2,27,0.56,18.323,M,-93.469,M,,*60
$GNGGA,071627.000,1003.252762,N,07619.584270,E,2,27,0.56,18.271,M,-93.468,M,,*63
$GNGGA,071628.000,1003.253746,N,07619.581600,E,2,27,0.56,18.255,M,-93.469,M,,*6A
$GNGGA,071629.000,1003.254712,N,07619.578792,E,2,26,0.58,18.167,M,-93.469,M,,*6C
$GNGGA,071630.000,1003.255768,N,07619.575552,E,2,25,0.61,18.135,M,-93.469,M,,*65
$GNGGA,071631.000,1003.257004,N,07619.571676,E,2,27,0.56,17.944,M,-93.469,M,,*6D
$GNGGA,071632.000,1003.258378,N,07619.567248,E,2,27,0.56,17.834,M,-93.469,M,,*61
$GNGGA,071633.000,1003.259806,N,07619.562046,E,2,26,0.57,17.697,M,-93.469,M,,*6D
$GNGGA,071634.000,1003.261426,N,07619.556214,E,2,27,0.56,17.533,M,-93.468,M,,*61
$GNGGA,071635.000,1003.263214,N,07619.549890,E,2,28,0.54,17.517,M,-93.469,M,,*67
$GNGGA,071636.000,1003.265110,N,07619.543284,E,2,28,0.54,17.524,M,-93.468,M,,*61
$GNGGA,071637.000,1003.267162,N,07619.536456,E,2,28,0.54,17.356,M,-93.469,M,,*6E
$GNGGA,071638.000,1003.269598,N,07619.529316,E,2,28,0.54,17.254,M,-93.469,M,,*60
$GNGGA,071639.000,1003.272448,N,07619.521888,E,2,27,0.56,17.274,M,-93.468,M,,*6D
$GNGGA,071640.000,1003.275448,N,07619.514388,E,2,28,0.54,17.051,M,-93.468,M,,*61
$GNGGA,071641.000,1003.278358,N,07619.507026,E,2,28,0.54,16.821,M,-93.468,M,,*60
$GNGGA,071642.000,1003.281136,N,07619.499802,E,2,28,0.54,16.626,M,-93.468,M,,*6E
$GNGGA,071643.000,1003.283902,N,07619.493004,E,2,28,0.54,16.315,M,-93.468,M,,*63
$GNGGA,071644.000,1003.286638,N,07619.486908,E,2,28,0.55,16.255,M,-93.468,M,,*62
$GNGGA,071645.000,1003.289062,N,07619.481472,E,2,28,0.55,16.147,M,-93.468,M,,*62
$GNGGA,071646.000,1003.291186,N,07619.476678,E,2,27,0.56,16.000,M,-93.468,M,,*6D
$GNGGA,071647.000,1003.293274,N,07619.472142,E,2,28,0.54,16.014,M,-93.467,M,,*6D
$GNGGA,071648.000,1003.294942,N,07619.467330,E,2,27,0.55,15.771,M,-93.467,M,,*61
$GNGGA,071649.000,1003.296028,N,07619.462224,E,2,27,0.55,15.630,M,-93.467,M,,*62
$GNGGA,071650.000,1003.296664,N,07619.456944,E,2,26,0.57,15.496,M,-93.467,M,,*63
$GNGGA,071651.000,1003.297006,N,07619.451964,E,2,26,0.57,15.287,M,-93.468,M,,*6D
$GNGGA,071652.000,1003.297252,N,07619.447368,E,2,26,0.57,15.135,M,-93.467,M,,*69
$GNGGA,071653.000,1003.297294,N,07619.442988,E,2,27,0.55,14.870,M,-93.467,M,,*69
$GNGGA,071654.000,1003.297216,N,07619.438848,E,2,27,0.55,14.559,M,-93.467,M,,*62
$GNGGA,071655.000,1003.297132,N,07619.434900,E,2,27,0.55,14.348,M,-93.467,M,,*61
$GNGGA,071656.000,1003.297012,N,07619.431126,E,2,27,0.55,14.184,M,-93.467,M,,*6A
$GNGGA,071657.000,1003.296910,N,07619.427754,E,2,27,0.55,13.731,M,-93.467,M,,*6A
$GNGGA,071658.000,1003.296646,N,07619.424742,E,2,26,0.57,13.154,M,-93.467,M,,*6B
$GNGGA,071659.000,1003.296586,N,07619.422390,E,2,26,0.57,13.452,M,-93.467,M,,*6B
$GNGGA,071700.000,1003.296490,N,07619.421046,E,2,27,0.55,13.422,M,-93.467,M,,*6F
$GNGGA,071701.000,1003.296532,N,07619.420872,E,2,27,0.55,13.766,M,-93.467,M,,*6A
$GNGGA,071702.000,1003.296640,N,07619.421010,E,2,26,0.57,13.859,M,-93.467,M,,*62
$GNGGA,071703.000,1003.296676,N,07619.421196,E,2,26,0.57,13.907,M,-93.467,M,,*63
